{
  "type": "FeatureCollection",
  "features": [
    {
      "type": "Feature",
      "properties": {
        "typ": "Bauwerk",
        "nr": 3,
        "name": "S+U Alexanderplatz Bhf",
        "d": null,
        "x": 4596000,
        "y": 5821830,
        "untergeordnete_exportnummer": 100003,
        "hafas_nr": 9100003
      },
      "geometry": {
        "type": "Point",
        "coordinates": [
          13.412832,
          52.521152
        ]
      }
    },
    {
      "type": "Feature",
      "properties": {
        "typ": "Zwischenpunkt",
        "nr": 140,
        "name": "Zwischengeschoss U5/Verteiler (Treppe 2 zum Verteiler)",
        "d": -3,
        "x": 4596000,
        "y": 5821830,
        "untergeordnete_exportnummer": 9701140,
        "hafas_nr": null
      },
      "geometry": {
        "type": "Point",
        "coordinates": [
          13.412832,
          52.521152
        ]
      }
    },
    {
      "type": "Feature",
      "properties": {
        "typ": "Zwischenpunkt",
        "nr": 58,
        "name": "Untergeschoss Empfangshalle (Rolltreppe zur Empfangshalle Nähe Dircksenstraße)",
        "d": -1,
        "x": 4595875,
        "y": 5821884,
        "untergeordnete_exportnummer": 9701058,
        "hafas_nr": null
      },
      "geometry": {
        "type": "Point",
        "coordinates": [
          13.411006,
          52.521659
        ]
      }
    },
    {
      "type": "Feature",
      "properties": {
        "typ": "Zwischenpunkt",
        "nr": 62,
        "name": "Bahnsteig U2 (Aufzug  Zwischengeschoss U5/U2,Bahnsteig U5 Hönow und Zugang)",
        "d": -1,
        "x": 4596068,
        "y": 5821877,
        "untergeordnete_exportnummer": 9701062,
        "hafas_nr": null
      },
      "geometry": {
        "type": "Point",
        "coordinates": [
          13.413847,
          52.521562
        ]
      }
    },
    {
      "type": "Feature",
      "properties": {
        "typ": "Zwischenpunkt",
        "nr": 70,
        "name": "Zwischengeschoss U5/U2 (Treppe 1 zum Bahnsteig U5 Hönow)",
        "d": -3,
        "x": 4596000,
        "y": 5821830,
        "untergeordnete_exportnummer": 9701070,
        "hafas_nr": null
      },
      "geometry": {
        "type": "Point",
        "coordinates": [
          13.412832,
          52.521152
        ]
      }
    },
    {
      "type": "Feature",
      "properties": {
        "typ": "Zwischenpunkt",
        "nr": 60,
        "name": "Bahnsteig U2 (Treppe1 zum Zwischengeschoss U5/U2)",
        "d": -1,
        "x": 4596069,
        "y": 5821877,
        "untergeordnete_exportnummer": 9701060,
        "hafas_nr": null
      },
      "geometry": {
        "type": "Point",
        "coordinates": [
          13.413861,
          52.521562
        ]
      }
    },
    {
      "type": "Feature",
      "properties": {
        "typ": "Zwischenpunkt",
        "nr": 65,
        "name": "Zwischengeschoss U5/U2 (Aufzug zum Bahnsteig U2 und Bahnsteig U5 S+U Alexanderplatz Bhf.)",
        "d": -3,
        "x": 4596000,
        "y": 5821830,
        "untergeordnete_exportnummer": 9701065,
        "hafas_nr": null
      },
      "geometry": {
        "type": "Point",
        "coordinates": [
          13.412832,
          52.521152
        ]
      }
    },
    {
      "type": "Feature",
      "properties": {
        "typ": "Zwischenpunkt",
        "nr": 66,
        "name": "Zwischengeschoss U5/U2 (Treppe 2 zum Bahnsteig U2)",
        "d": -3,
        "x": 4596000,
        "y": 5821831,
        "untergeordnete_exportnummer": 9701066,
        "hafas_nr": null
      },
      "geometry": {
        "type": "Point",
        "coordinates": [
          13.412832,
          52.521161
        ]
      }
    },
    {
      "type": "Feature",
      "properties": {
        "typ": "Zwischenpunkt",
        "nr": 68,
        "name": "Zwischengeschoss U5/U2 (Treppe zur Ladenstraße)",
        "d": -3,
        "x": 4596002,
        "y": 5821831,
        "untergeordnete_exportnummer": 9701068,
        "hafas_nr": null
      },
      "geometry": {
        "type": "Point",
        "coordinates": [
          13.412861,
          52.521161
        ]
      }
    },
    {
      "type": "Feature",
      "properties": {
        "typ": "Zwischenpunkt",
        "nr": 78,
        "name": "Zwischengeschoss Unterführung (Rolltreppe zum Bahnsteig U5 S+U Alexanderplatz Bhf.)",
        "d": -1,
        "x": 4596248,
        "y": 5821943,
        "untergeordnete_exportnummer": 9701078,
        "hafas_nr": null
      },
      "geometry": {
        "type": "Point",
        "coordinates": [
          13.416517,
          52.522124
        ]
      }
    },
    {
      "type": "Feature",
      "properties": {
        "typ": "Zwischenpunkt",
        "nr": 79,
        "name": "Zwischengeschoss Unterführung (Treppe zum Bahnsteig U5 Hönow)",
        "d": -1,
        "x": 4596257,
        "y": 5821954,
        "untergeordnete_exportnummer": 9701079,
        "hafas_nr": null
      },
      "geometry": {
        "type": "Point",
        "coordinates": [
          13.416653,
          52.522221
        ]
      }
    },
    {
      "type": "Feature",
      "properties": {
        "typ": "Zwischenpunkt",
        "nr": 105,
        "name": "Bahnsteig U5 S+U Alexanderplatz Bhf. (Aufzug zum Bahnsteig U8,Verteiler und Zugang)",
        "d": -5,
        "x": 4596082,
        "y": 5821896,
        "untergeordnete_exportnummer": 9701105,
        "hafas_nr": null
      },
      "geometry": {
        "type": "Point",
        "coordinates": [
          13.414058,
          52.521731
        ]
      }
    },
    {
      "type": "Feature",
      "properties": {
        "typ": "Zwischenpunkt",
        "nr": 110,
        "name": "Bahnsteig U5 S+U Alexanderplatz Bhf. (Aufzug zum Bahnsteig U2 und Zwischengeschoss U5/U2)",
        "d": -5,
        "x": 4596082,
        "y": 5821895,
        "untergeordnete_exportnummer": 9701110,
        "hafas_nr": null
      },
      "geometry": {
        "type": "Point",
        "coordinates": [
          13.414058,
          52.521722
        ]
      }
    },
    {
      "type": "Feature",
      "properties": {
        "typ": "Zwischenpunkt",
        "nr": 111,
        "name": "Bahnsteig U5 S+U Alexanderplatz Bhf. (Treppe zum Zwischengeschoss Unterführung)",
        "d": -5,
        "x": 4596082,
        "y": 5821896,
        "untergeordnete_exportnummer": 9701111,
        "hafas_nr": null
      },
      "geometry": {
        "type": "Point",
        "coordinates": [
          13.414058,
          52.521731
        ]
      }
    },
    {
      "type": "Feature",
      "properties": {
        "typ": "Zwischenpunkt",
        "nr": 119,
        "name": "Bahnsteig U5 Hönow (Aufzug zum Bahnsteig U2 und Zwischengeschoss U5/U2 und Zugang)",
        "d": -5,
        "x": 4596086,
        "y": 5821891,
        "untergeordnete_exportnummer": 9701119,
        "hafas_nr": null
      },
      "geometry": {
        "type": "Point",
        "coordinates": [
          13.414116,
          52.521685
        ]
      }
    },
    {
      "type": "Feature",
      "properties": {
        "typ": "Zwischenpunkt",
        "nr": 124,
        "name": "Ladenstr. (Treppe Grunerstraße/Weltzeituhr)",
        "d": -2,
        "x": 4596026,
        "y": 5821849,
        "untergeordnete_exportnummer": 9701124,
        "hafas_nr": null
      },
      "geometry": {
        "type": "Point",
        "coordinates": [
          13.41322,
          52.521318
        ]
      }
    },
    {
      "type": "Feature",
      "properties": {
        "typ": "Zwischenpunkt",
        "nr": 123,
        "name": "Ladenstr. (Treppe zum Zwischengeschoss U5/Verteiler)",
        "d": -2,
        "x": 4596026,
        "y": 5821848,
        "untergeordnete_exportnummer": 9701123,
        "hafas_nr": null
      },
      "geometry": {
        "type": "Point",
        "coordinates": [
          13.41322,
          52.521309
        ]
      }
    },
    {
      "type": "Feature",
      "properties": {
        "typ": "Zwischenpunkt",
        "nr": 121,
        "name": "Bahnsteig U5 Hönow (Rolltreppe zum Zwischengeschoss Unterführung)",
        "d": -5,
        "x": 4596086,
        "y": 5821891,
        "untergeordnete_exportnummer": 9701121,
        "hafas_nr": null
      },
      "geometry": {
        "type": "Point",
        "coordinates": [
          13.414116,
          52.521685
        ]
      }
    },
    {
      "type": "Feature",
      "properties": {
        "typ": "Zwischenpunkt",
        "nr": 126,
        "name": "Verteiler (Treppe 1 zum Bahnsteig U8)",
        "d": -1,
        "x": 4595981,
        "y": 5821779,
        "untergeordnete_exportnummer": 9701126,
        "hafas_nr": null
      },
      "geometry": {
        "type": "Point",
        "coordinates": [
          13.412537,
          52.520697
        ]
      }
    },
    {
      "type": "Feature",
      "properties": {
        "typ": "Zwischenpunkt",
        "nr": 127,
        "name": "Verteiler (Treppe 2 zum Bahnsteig U8)",
        "d": -1,
        "x": 4595982,
        "y": 5821778,
        "untergeordnete_exportnummer": 9701127,
        "hafas_nr": null
      },
      "geometry": {
        "type": "Point",
        "coordinates": [
          13.412552,
          52.520688
        ]
      }
    },
    {
      "type": "Feature",
      "properties": {
        "typ": "Zwischenpunkt",
        "nr": 125,
        "name": "Ladenstr. (Treppe zum Zwischengeschoss U5/U2)",
        "d": -2,
        "x": 4596025,
        "y": 5821849,
        "untergeordnete_exportnummer": 9701125,
        "hafas_nr": null
      },
      "geometry": {
        "type": "Point",
        "coordinates": [
          13.413205,
          52.521318
        ]
      }
    },
    {
      "type": "Feature",
      "properties": {
        "typ": "Zwischenpunkt",
        "nr": 129,
        "name": "Verteiler (Aufzug zum Bahnsteig U5 und Bahnsteig U8)",
        "d": -1,
        "x": 4595982,
        "y": 5821779,
        "untergeordnete_exportnummer": 9701129,
        "hafas_nr": null
      },
      "geometry": {
        "type": "Point",
        "coordinates": [
          13.412552,
          52.520697
        ]
      }
    },
    {
      "type": "Feature",
      "properties": {
        "typ": "Zwischenpunkt",
        "nr": 133,
        "name": "Verteiler (Rolltreppe zum Bahnsteig U5 Hönow)",
        "d": -1,
        "x": 4595982,
        "y": 5821779,
        "untergeordnete_exportnummer": 9701133,
        "hafas_nr": null
      },
      "geometry": {
        "type": "Point",
        "coordinates": [
          13.412552,
          52.520697
        ]
      }
    },
    {
      "type": "Feature",
      "properties": {
        "typ": "Zugang",
        "nr": 17,
        "name": "Zugang (Empfangshalle) Gontard-/Panoramastraße/Fernsehturm",
        "d": 0,
        "x": 4595828,
        "y": 5821903,
        "untergeordnete_exportnummer": 9701017,
        "hafas_nr": null
      },
      "geometry": {
        "type": "Point",
        "coordinates": [
          13.410319,
          52.521838
        ]
      }
    },
    {
      "type": "Feature",
      "properties": {
        "typ": "Zugang",
        "nr": 21,
        "name": "Zugang (Aufzug) U5/U8",
        "d": 0,
        "x": 4595984,
        "y": 5821832,
        "untergeordnete_exportnummer": 9701021,
        "hafas_nr": null
      },
      "geometry": {
        "type": "Point",
        "coordinates": [
          13.412597,
          52.521173
        ]
      }
    },
    {
      "type": "Feature",
      "properties": {
        "typ": "Zugang",
        "nr": 20,
        "name": "Zugang (Empfangshalle) Rathausstraße",
        "d": 0,
        "x": 4595950,
        "y": 5821810,
        "untergeordnete_exportnummer": 9701020,
        "hafas_nr": null
      },
      "geometry": {
        "type": "Point",
        "coordinates": [
          13.41209,
          52.520981
        ]
      }
    },
    {
      "type": "Feature",
      "properties": {
        "typ": "Zwischenpunkt",
        "nr": 39,
        "name": "Bahnsteig S5/7/75/3 (Treppe Bahnsteig -Ende zur Empfangshalle)",
        "d": 1,
        "x": 4595876,
        "y": 5821876,
        "untergeordnete_exportnummer": 9701039,
        "hafas_nr": null
      },
      "geometry": {
        "type": "Point",
        "coordinates": [
          13.411019,
          52.521587
        ]
      }
    },
    {
      "type": "Feature",
      "properties": {
        "typ": "Zwischenpunkt",
        "nr": 73,
        "name": "Zwischengeschoss U5/U2 (Treppe zum Zwischengeschoss Unterführung)",
        "d": -3,
        "x": 4596000,
        "y": 5821830,
        "untergeordnete_exportnummer": 9701073,
        "hafas_nr": null
      },
      "geometry": {
        "type": "Point",
        "coordinates": [
          13.412832,
          52.521152
        ]
      }
    },
    {
      "type": "Feature",
      "properties": {
        "typ": "Zwischenpunkt",
        "nr": 57,
        "name": "Untergeschoss Empfangshalle (Rolltreppe Empfangshalle Nähe Gontardstraße)",
        "d": -1,
        "x": 4595875,
        "y": 5821885,
        "untergeordnete_exportnummer": 9701057,
        "hafas_nr": null
      },
      "geometry": {
        "type": "Point",
        "coordinates": [
          13.411007,
          52.521668
        ]
      }
    },
    {
      "type": "Feature",
      "properties": {
        "typ": "Zwischenpunkt",
        "nr": 100,
        "name": "Zwischengeschoss U5/U8 (Treppe 1 zum Bahnsteig U8)",
        "d": -4,
        "x": 4596000,
        "y": 5821832,
        "untergeordnete_exportnummer": 9701100,
        "hafas_nr": null
      },
      "geometry": {
        "type": "Point",
        "coordinates": [
          13.412832,
          52.52117
        ]
      }
    },
    {
      "type": "Feature",
      "properties": {
        "typ": "Zwischenpunkt",
        "nr": 116,
        "name": "Bahnsteig U5 Hönow (Treppe zum Zwischengeschoss U5/Verteiler)",
        "d": -5,
        "x": 4596087,
        "y": 5821892,
        "untergeordnete_exportnummer": 9701116,
        "hafas_nr": null
      },
      "geometry": {
        "type": "Point",
        "coordinates": [
          13.414131,
          52.521694
        ]
      }
    },
    {
      "type": "Feature",
      "properties": {
        "typ": "Zugang",
        "nr": 142,
        "name": "Zugang (Treppe) Rathaus-/Gontardstraße/Berliner Rathaus",
        "d": 0,
        "x": 4595963,
        "y": 5821760,
        "untergeordnete_exportnummer": 9701142,
        "hafas_nr": null
      },
      "geometry": {
        "type": "Point",
        "coordinates": [
          13.412267,
          52.52053
        ]
      }
    },
    {
      "type": "Feature",
      "properties": {
        "typ": "Zwischenpunkt",
        "nr": 138,
        "name": "Zwischengeschoss U5/Verteiler (Treppe zur Ladenstraße)",
        "d": -3,
        "x": 4596000,
        "y": 5821830,
        "untergeordnete_exportnummer": 9701138,
        "hafas_nr": null
      },
      "geometry": {
        "type": "Point",
        "coordinates": [
          13.412832,
          52.521152
        ]
      }
    },
    {
      "type": "Feature",
      "properties": {
        "typ": "Zwischenpunkt",
        "nr": 72,
        "name": "Zwischengeschoss U5/U2 (Treppe 2 zum Bahnsteig U5 Hönow)",
        "d": -3,
        "x": 4596000,
        "y": 5821831,
        "untergeordnete_exportnummer": 9701072,
        "hafas_nr": null
      },
      "geometry": {
        "type": "Point",
        "coordinates": [
          13.412832,
          52.521161
        ]
      }
    },
    {
      "type": "Feature",
      "properties": {
        "typ": "Zwischenpunkt",
        "nr": 74,
        "name": "Zwischengeschoss U5/U2 (Rolltreppe zum Zwischengeschoss Unterführung)",
        "d": -3,
        "x": 4596000,
        "y": 5821831,
        "untergeordnete_exportnummer": 9701074,
        "hafas_nr": null
      },
      "geometry": {
        "type": "Point",
        "coordinates": [
          13.412832,
          52.521161
        ]
      }
    },
    {
      "type": "Feature",
      "properties": {
        "typ": "Zwischenpunkt",
        "nr": 80,
        "name": "Zwischengeschoss Unterführung (Rolltreppe zum Bahnsteig U5 Hönow)",
        "d": -1,
        "x": 4596251,
        "y": 5821946,
        "untergeordnete_exportnummer": 9701080,
        "hafas_nr": null
      },
      "geometry": {
        "type": "Point",
        "coordinates": [
          13.416562,
          52.52215
        ]
      }
    },
    {
      "type": "Feature",
      "properties": {
        "typ": "Zwischenpunkt",
        "nr": 109,
        "name": "Bahnsteig U5 S+U Alexanderplatz Bhf. (Treppe 1 zum Zwischengeschoss U5/U2)",
        "d": -5,
        "x": 4596081,
        "y": 5821896,
        "untergeordnete_exportnummer": 9701109,
        "hafas_nr": null
      },
      "geometry": {
        "type": "Point",
        "coordinates": [
          13.414044,
          52.521731
        ]
      }
    },
    {
      "type": "Feature",
      "properties": {
        "typ": "Zwischenpunkt",
        "nr": 128,
        "name": "Verteiler (Aufzug zum Bahnsteig U5,Bahnsteig U8 und Zugang)",
        "d": -1,
        "x": 4595981,
        "y": 5821779,
        "untergeordnete_exportnummer": 9701128,
        "hafas_nr": null
      },
      "geometry": {
        "type": "Point",
        "coordinates": [
          13.412537,
          52.520697
        ]
      }
    },
    {
      "type": "Feature",
      "properties": {
        "typ": "Zwischenpunkt",
        "nr": 132,
        "name": "Verteiler (Fahrtreppe zum Bahnsteig U5 S+U Alexanderplatz Bhf.)",
        "d": -1,
        "x": 4595982,
        "y": 5821779,
        "untergeordnete_exportnummer": 9701132,
        "hafas_nr": null
      },
      "geometry": {
        "type": "Point",
        "coordinates": [
          13.412552,
          52.520697
        ]
      }
    },
    {
      "type": "Feature",
      "properties": {
        "typ": "Zwischenpunkt",
        "nr": 43,
        "name": "Empfangshalle (Rolltreppe zum Fahrtreppe Bahnsteig -Mitte)",
        "d": 0,
        "x": 4595873,
        "y": 5821871,
        "untergeordnete_exportnummer": 9701043,
        "hafas_nr": null
      },
      "geometry": {
        "type": "Point",
        "coordinates": [
          13.410973,
          52.521543
        ]
      }
    },
    {
      "type": "Feature",
      "properties": {
        "typ": "Zwischenpunkt",
        "nr": 46,
        "name": "Empfangshalle (Treppe zum Bahnsteig -Anfang S5/7/75/3)",
        "d": 0,
        "x": 4595918,
        "y": 5821853,
        "untergeordnete_exportnummer": 9701046,
        "hafas_nr": null
      },
      "geometry": {
        "type": "Point",
        "coordinates": [
          13.411631,
          52.521373
        ]
      }
    },
    {
      "type": "Feature",
      "properties": {
        "typ": "Zugang",
        "nr": 15,
        "name": "Zugang (Empfangshalle) Gontardstraße/Tram",
        "d": 0,
        "x": 4595913,
        "y": 5821816,
        "untergeordnete_exportnummer": 9701015,
        "hafas_nr": null
      },
      "geometry": {
        "type": "Point",
        "coordinates": [
          13.411546,
          52.521042
        ]
      }
    },
    {
      "type": "Feature",
      "properties": {
        "typ": "Zwischenpunkt",
        "nr": 36,
        "name": "Bahnsteig S5/7/75/3 (Rolltreppe Bahnsteig -Mitte zur Empfangshalle)",
        "d": 1,
        "x": 4595876,
        "y": 5821876,
        "untergeordnete_exportnummer": 9701036,
        "hafas_nr": null
      },
      "geometry": {
        "type": "Point",
        "coordinates": [
          13.411019,
          52.521587
        ]
      }
    },
    {
      "type": "Feature",
      "properties": {
        "typ": "Zwischenpunkt",
        "nr": 63,
        "name": "Bahnsteig U2 (Treppe 2 zum Zwischengeschoss U5/U2)",
        "d": -1,
        "x": 4596068,
        "y": 5821878,
        "untergeordnete_exportnummer": 9701063,
        "hafas_nr": null
      },
      "geometry": {
        "type": "Point",
        "coordinates": [
          13.413847,
          52.521571
        ]
      }
    },
    {
      "type": "Feature",
      "properties": {
        "typ": "Zwischenpunkt",
        "nr": 56,
        "name": "Untergeschoss Empfangshalle (Treppe zur Empfangshalle)",
        "d": -1,
        "x": 4595875,
        "y": 5821885,
        "untergeordnete_exportnummer": 9701056,
        "hafas_nr": null
      },
      "geometry": {
        "type": "Point",
        "coordinates": [
          13.411007,
          52.521668
        ]
      }
    },
    {
      "type": "Feature",
      "properties": {
        "typ": "Zwischenpunkt",
        "nr": 61,
        "name": "Bahnsteig U2 (Aufzug zum Zwischengeschoss U5/U2 und Bahnsteig U5 S+U Alexanderplatz Bhf.)",
        "d": -1,
        "x": 4596068,
        "y": 5821877,
        "untergeordnete_exportnummer": 9701061,
        "hafas_nr": null
      },
      "geometry": {
        "type": "Point",
        "coordinates": [
          13.413847,
          52.521562
        ]
      }
    },
    {
      "type": "Feature",
      "properties": {
        "typ": "Zwischenpunkt",
        "nr": 59,
        "name": "Bahnsteig U2 (Treppe Alexander-/Grunerstraße)",
        "d": -1,
        "x": 4596068,
        "y": 5821878,
        "untergeordnete_exportnummer": 9701059,
        "hafas_nr": null
      },
      "geometry": {
        "type": "Point",
        "coordinates": [
          13.413847,
          52.521571
        ]
      }
    },
    {
      "type": "Feature",
      "properties": {
        "typ": "Zwischenpunkt",
        "nr": 75,
        "name": "Zwischengeschoss Unterführung (Treppe zum Zwischengeschoss U5/U2)",
        "d": -1,
        "x": 4596257,
        "y": 5821954,
        "untergeordnete_exportnummer": 9701075,
        "hafas_nr": null
      },
      "geometry": {
        "type": "Point",
        "coordinates": [
          13.416653,
          52.522221
        ]
      }
    },
    {
      "type": "Feature",
      "properties": {
        "typ": "Zwischenpunkt",
        "nr": 102,
        "name": "Zwischengeschoss U5/U8 (Treppe zum Bahnsteig U5 S+U Alexanderplatz Bhf.)",
        "d": -4,
        "x": 4596000,
        "y": 5821830,
        "untergeordnete_exportnummer": 9701102,
        "hafas_nr": null
      },
      "geometry": {
        "type": "Point",
        "coordinates": [
          13.412832,
          52.521152
        ]
      }
    },
    {
      "type": "Feature",
      "properties": {
        "typ": "Zwischenpunkt",
        "nr": 101,
        "name": "Zwischengeschoss U5/U8 (Treppe 2 zum Bahnsteig U8)",
        "d": -4,
        "x": 4596000,
        "y": 5821831,
        "untergeordnete_exportnummer": 9701101,
        "hafas_nr": null
      },
      "geometry": {
        "type": "Point",
        "coordinates": [
          13.412832,
          52.521161
        ]
      }
    },
    {
      "type": "Feature",
      "properties": {
        "typ": "Zwischenpunkt",
        "nr": 107,
        "name": "Bahnsteig U5 S+U Alexanderplatz Bhf. (Treppe zum Zwischengeschoss U5/Verteiler)",
        "d": -5,
        "x": 4596082,
        "y": 5821896,
        "untergeordnete_exportnummer": 9701107,
        "hafas_nr": null
      },
      "geometry": {
        "type": "Point",
        "coordinates": [
          13.414058,
          52.521731
        ]
      }
    },
    {
      "type": "Feature",
      "properties": {
        "typ": "Zwischenpunkt",
        "nr": 114,
        "name": "Bahnsteig U5 Hönow (Aufzug zum Bahnsteig U8 und Verteiler)",
        "d": -5,
        "x": 4596087,
        "y": 5821891,
        "untergeordnete_exportnummer": 9701114,
        "hafas_nr": null
      },
      "geometry": {
        "type": "Point",
        "coordinates": [
          13.414131,
          52.521685
        ]
      }
    },
    {
      "type": "Feature",
      "properties": {
        "typ": "Zwischenpunkt",
        "nr": 112,
        "name": "Bahnsteig U5 S+U Alexanderplatz Bhf. (Rolltreppe zum Zwischengeschoss Unterführung)",
        "d": -5,
        "x": 4596082,
        "y": 5821896,
        "untergeordnete_exportnummer": 9701112,
        "hafas_nr": null
      },
      "geometry": {
        "type": "Point",
        "coordinates": [
          13.414058,
          52.521731
        ]
      }
    },
    {
      "type": "Feature",
      "properties": {
        "typ": "Zwischenpunkt",
        "nr": 118,
        "name": "Bahnsteig U5 Hönow (Treppe 1 zum Zwischengeschoss U5/U2)",
        "d": -5,
        "x": 4596087,
        "y": 5821891,
        "untergeordnete_exportnummer": 9701118,
        "hafas_nr": null
      },
      "geometry": {
        "type": "Point",
        "coordinates": [
          13.414131,
          52.521685
        ]
      }
    },
    {
      "type": "Feature",
      "properties": {
        "typ": "Zwischenpunkt",
        "nr": 136,
        "name": "Zwischengeschoss U5/Verteiler (Treppe zum Bahnsteig U5 S+U Alexanderplatz Bhf.)",
        "d": -3,
        "x": 4596000,
        "y": 5821831,
        "untergeordnete_exportnummer": 9701136,
        "hafas_nr": null
      },
      "geometry": {
        "type": "Point",
        "coordinates": [
          13.412832,
          52.521161
        ]
      }
    },
    {
      "type": "Feature",
      "properties": {
        "typ": "Zugang",
        "nr": 18,
        "name": "Zugang (Empfangshalle) Dircksen-/Karl-Liebknecht-Straße",
        "d": 0,
        "x": 4595854,
        "y": 5821932,
        "untergeordnete_exportnummer": 9701018,
        "hafas_nr": null
      },
      "geometry": {
        "type": "Point",
        "coordinates": [
          13.410711,
          52.522094
        ]
      }
    },
    {
      "type": "Feature",
      "properties": {
        "typ": "ÖV",
        "nr": 5,
        "name": "Bahnsteig Gleis 3/4 S5,S7,S75,S3",
        "d": 1,
        "x": 4595876,
        "y": 5821876,
        "untergeordnete_exportnummer": 9701005,
        "hafas_nr": null
      },
      "geometry": {
        "type": "Point",
        "coordinates": [
          13.411019,
          52.521587
        ]
      }
    },
    {
      "type": "Feature",
      "properties": {
        "typ": "Zwischenpunkt",
        "nr": 50,
        "name": "Empfangshalle (Rolltreppe zum Bahnsteig -Ende S5/S7/S75/S3)",
        "d": 0,
        "x": 4595849,
        "y": 5821919,
        "untergeordnete_exportnummer": 9701050,
        "hafas_nr": null
      },
      "geometry": {
        "type": "Point",
        "coordinates": [
          13.410633,
          52.521978
        ]
      }
    },
    {
      "type": "Feature",
      "properties": {
        "typ": "Zwischenpunkt",
        "nr": 30,
        "name": "Bahnsteig (Rolltreppe Bahnsteig -Anfang zur Empfangshalle)",
        "d": 1,
        "x": 4595884,
        "y": 5821885,
        "untergeordnete_exportnummer": 9701030,
        "hafas_nr": null
      },
      "geometry": {
        "type": "Point",
        "coordinates": [
          13.411139,
          52.521667
        ]
      }
    },
    {
      "type": "Feature",
      "properties": {
        "typ": "Zwischenpunkt",
        "nr": 29,
        "name": "Bahnsteig (Treppe zur Empfangshalle)",
        "d": 1,
        "x": 4595885,
        "y": 5821884,
        "untergeordnete_exportnummer": 9701029,
        "hafas_nr": null
      },
      "geometry": {
        "type": "Point",
        "coordinates": [
          13.411154,
          52.521657
        ]
      }
    },
    {
      "type": "Feature",
      "properties": {
        "typ": "Zwischenpunkt",
        "nr": 44,
        "name": "Empfangshalle (Rolltreppe zum  Bahnsteig -Ende)",
        "d": 0,
        "x": 4595841,
        "y": 5821904,
        "untergeordnete_exportnummer": 9701044,
        "hafas_nr": null
      },
      "geometry": {
        "type": "Point",
        "coordinates": [
          13.410511,
          52.521845
        ]
      }
    },
    {
      "type": "Feature",
      "properties": {
        "typ": "Zugang",
        "nr": 16,
        "name": "Zugang (Empfangshalle) Gontardstraße/Fernsehturm",
        "d": 0,
        "x": 4595877,
        "y": 5821853,
        "untergeordnete_exportnummer": 9701016,
        "hafas_nr": null
      },
      "geometry": {
        "type": "Point",
        "coordinates": [
          13.411027,
          52.52138
        ]
      }
    },
    {
      "type": "Feature",
      "properties": {
        "typ": "Zugang",
        "nr": 144,
        "name": "Zugang (Treppe) Alexanderplatz/ Karl-Liebknecht-Straße/Galeria Kaufhof",
        "d": 0,
        "x": 4595940,
        "y": 5821891,
        "untergeordnete_exportnummer": 9701144,
        "hafas_nr": null
      },
      "geometry": {
        "type": "Point",
        "coordinates": [
          13.411966,
          52.521711
        ]
      }
    },
    {
      "type": "Feature",
      "properties": {
        "typ": "Zugang",
        "nr": 146,
        "name": "Zugang (Treppe) Alexander-/Memhard-/Karl-Liebknecht-Straße/Galeria Kaufhof",
        "d": 0,
        "x": 4596024,
        "y": 5821949,
        "untergeordnete_exportnummer": 9701146,
        "hafas_nr": null
      },
      "geometry": {
        "type": "Point",
        "coordinates": [
          13.413219,
          52.522217
        ]
      }
    },
    {
      "type": "Feature",
      "properties": {
        "typ": "Zwischenpunkt",
        "nr": 139,
        "name": "Zwischengeschoss U5/Verteiler (Treppe 1 zum Verteiler)",
        "d": -3,
        "x": 4596000,
        "y": 5821830,
        "untergeordnete_exportnummer": 9701139,
        "hafas_nr": null
      },
      "geometry": {
        "type": "Point",
        "coordinates": [
          13.412832,
          52.521152
        ]
      }
    },
    {
      "type": "Feature",
      "properties": {
        "typ": "Zwischenpunkt",
        "nr": 55,
        "name": "Untergeschoss Empfangshalle (Aufzug zur Empfangshalle und zum Bahnsteig)",
        "d": -1,
        "x": 4595875,
        "y": 5821885,
        "untergeordnete_exportnummer": 9701055,
        "hafas_nr": null
      },
      "geometry": {
        "type": "Point",
        "coordinates": [
          13.411007,
          52.521668
        ]
      }
    },
    {
      "type": "Feature",
      "properties": {
        "typ": "Zwischenpunkt",
        "nr": 82,
        "name": "Zwischengeschoss Unterführung (Treppe Alexanderplatz/Alexanderstraße)",
        "d": -1,
        "x": 4596259,
        "y": 5821957,
        "untergeordnete_exportnummer": 9701082,
        "hafas_nr": null
      },
      "geometry": {
        "type": "Point",
        "coordinates": [
          13.416683,
          52.522247
        ]
      }
    },
    {
      "type": "Feature",
      "properties": {
        "typ": "Zwischenpunkt",
        "nr": 97,
        "name": "Bahnsteig U8 (Aufzug zum Bahnsteig U5 Hönow und zum Verteiler)",
        "d": -3,
        "x": 4595979,
        "y": 5821814,
        "untergeordnete_exportnummer": 9701097,
        "hafas_nr": null
      },
      "geometry": {
        "type": "Point",
        "coordinates": [
          13.412518,
          52.521012
        ]
      }
    },
    {
      "type": "Feature",
      "properties": {
        "typ": "Zwischenpunkt",
        "nr": 99,
        "name": "Bahnsteig U8 (Treppe 2 zum Verteiler)",
        "d": -3,
        "x": 4595980,
        "y": 5821813,
        "untergeordnete_exportnummer": 9701099,
        "hafas_nr": null
      },
      "geometry": {
        "type": "Point",
        "coordinates": [
          13.412532,
          52.521003
        ]
      }
    },
    {
      "type": "Feature",
      "properties": {
        "typ": "Zwischenpunkt",
        "nr": 104,
        "name": "Bahnsteig U5 S+U Alexanderplatz Bhf. (Treppe zum Zwischengeschoss U5/U8)",
        "d": -5,
        "x": 4596082,
        "y": 5821895,
        "untergeordnete_exportnummer": 9701104,
        "hafas_nr": null
      },
      "geometry": {
        "type": "Point",
        "coordinates": [
          13.414058,
          52.521722
        ]
      }
    },
    {
      "type": "Feature",
      "properties": {
        "typ": "Zwischenpunkt",
        "nr": 106,
        "name": "Bahnsteig U5 S+U Alexanderplatz Bhf. (Rolltreppe zum Verteiler)",
        "d": -5,
        "x": 4596082,
        "y": 5821895,
        "untergeordnete_exportnummer": 9701106,
        "hafas_nr": null
      },
      "geometry": {
        "type": "Point",
        "coordinates": [
          13.414058,
          52.521722
        ]
      }
    },
    {
      "type": "Feature",
      "properties": {
        "typ": "Zwischenpunkt",
        "nr": 108,
        "name": "Bahnsteig U5 S+U Alexanderplatz Bhf. (Treppe 2 zum Zwischengeschoss U5/U2)",
        "d": -5,
        "x": 4596082,
        "y": 5821896,
        "untergeordnete_exportnummer": 9701108,
        "hafas_nr": null
      },
      "geometry": {
        "type": "Point",
        "coordinates": [
          13.414058,
          52.521731
        ]
      }
    },
    {
      "type": "Feature",
      "properties": {
        "typ": "Zwischenpunkt",
        "nr": 113,
        "name": "Bahnsteig U5 Hönow (Treppe zum Zwischengeschoss U5/U8)",
        "d": -5,
        "x": 4596086,
        "y": 5821892,
        "untergeordnete_exportnummer": 9701113,
        "hafas_nr": null
      },
      "geometry": {
        "type": "Point",
        "coordinates": [
          13.414116,
          52.521694
        ]
      }
    },
    {
      "type": "Feature",
      "properties": {
        "typ": "Zugang",
        "nr": 12,
        "name": "Zugang (Treppe) Alexander-/Grunerstraße",
        "d": 0,
        "x": 4596129,
        "y": 5821799,
        "untergeordnete_exportnummer": 9701012,
        "hafas_nr": null
      },
      "geometry": {
        "type": "Point",
        "coordinates": [
          13.414723,
          52.520851
        ]
      }
    },
    {
      "type": "Feature",
      "properties": {
        "typ": "ÖV",
        "nr": 1,
        "name": "Bahnsteig Gleis 1+2 U2",
        "d": -1,
        "x": 4596068,
        "y": 5821877,
        "untergeordnete_exportnummer": 9701001,
        "hafas_nr": null
      },
      "geometry": {
        "type": "Point",
        "coordinates": [
          13.413847,
          52.521562
        ]
      }
    },
    {
      "type": "Feature",
      "properties": {
        "typ": "ÖV",
        "nr": 4,
        "name": "Bahnsteig Gleis 2+4 U5 Richtung Hönow",
        "d": -5,
        "x": 4596086,
        "y": 5821891,
        "untergeordnete_exportnummer": 9701004,
        "hafas_nr": null
      },
      "geometry": {
        "type": "Point",
        "coordinates": [
          13.414116,
          52.521685
        ]
      }
    },
    {
      "type": "Feature",
      "properties": {
        "typ": "Zwischenpunkt",
        "nr": 37,
        "name": "Bahnsteig S5/7/75/3 (Treppe Bahnsteig -Mitte zur Empfangshalle)",
        "d": 1,
        "x": 4595875,
        "y": 5821877,
        "untergeordnete_exportnummer": 9701037,
        "hafas_nr": null
      },
      "geometry": {
        "type": "Point",
        "coordinates": [
          13.411004,
          52.521596
        ]
      }
    },
    {
      "type": "Feature",
      "properties": {
        "typ": "Zwischenpunkt",
        "nr": 33,
        "name": "Bahnsteig S5/7/75/3 (Aufzug zur Empfangshalle)",
        "d": 1,
        "x": 4595876,
        "y": 5821876,
        "untergeordnete_exportnummer": 9701033,
        "hafas_nr": null
      },
      "geometry": {
        "type": "Point",
        "coordinates": [
          13.411019,
          52.521587
        ]
      }
    },
    {
      "type": "Feature",
      "properties": {
        "typ": "Zugang",
        "nr": 14,
        "name": "Zugang (Treppe) Gruner-/Dircksen-/Alexanderstraße",
        "d": 0,
        "x": 4596014,
        "y": 5821754,
        "untergeordnete_exportnummer": 9701014,
        "hafas_nr": null
      },
      "geometry": {
        "type": "Point",
        "coordinates": [
          13.413016,
          52.520467
        ]
      }
    },
    {
      "type": "Feature",
      "properties": {
        "typ": "Zwischenpunkt",
        "nr": 41,
        "name": "Empfangshalle (Treppe zum Bahnsteig)",
        "d": 0,
        "x": 4595906,
        "y": 5821842,
        "untergeordnete_exportnummer": 9701041,
        "hafas_nr": null
      },
      "geometry": {
        "type": "Point",
        "coordinates": [
          13.411451,
          52.521276
        ]
      }
    },
    {
      "type": "Feature",
      "properties": {
        "typ": "Zugang",
        "nr": 19,
        "name": "Zugang (Empfangshalle) Dircksenstraße",
        "d": 0,
        "x": 4595905,
        "y": 5821880,
        "untergeordnete_exportnummer": 9701019,
        "hafas_nr": null
      },
      "geometry": {
        "type": "Point",
        "coordinates": [
          13.411447,
          52.521618
        ]
      }
    },
    {
      "type": "Feature",
      "properties": {
        "typ": "ÖV",
        "nr": 2,
        "name": "Bahnsteig Gleis 1+2 U8",
        "d": -3,
        "x": 4595979,
        "y": 5821814,
        "untergeordnete_exportnummer": 9701002,
        "hafas_nr": null
      },
      "geometry": {
        "type": "Point",
        "coordinates": [
          13.412518,
          52.521012
        ]
      }
    },
    {
      "type": "Feature",
      "properties": {
        "typ": "Zwischenpunkt",
        "nr": 38,
        "name": "Bahnsteig S5/7/75/3 (Rolltreppe Bahnsteig -Ende zur Empfangshalle)",
        "d": 1,
        "x": 4595876,
        "y": 5821876,
        "untergeordnete_exportnummer": 9701038,
        "hafas_nr": null
      },
      "geometry": {
        "type": "Point",
        "coordinates": [
          13.411019,
          52.521587
        ]
      }
    },
    {
      "type": "Feature",
      "properties": {
        "typ": "Zwischenpunkt",
        "nr": 159,
        "name": "Ladenstr. (Treppe Dirksenstraße/Alexanderplatz)",
        "d": -2,
        "x": 4596000,
        "y": 5821830,
        "untergeordnete_exportnummer": 9701159,
        "hafas_nr": null
      },
      "geometry": {
        "type": "Point",
        "coordinates": [
          13.412832,
          52.521152
        ]
      }
    },
    {
      "type": "Feature",
      "properties": {
        "typ": "Zwischenpunkt",
        "nr": 156,
        "name": "Zwischengeschoss U8 (Treppe Alexanderplatz/ Karl-Liebknecht-Straße/Galeria Kaufhof)",
        "d": -2,
        "x": 4596001,
        "y": 5821831,
        "untergeordnete_exportnummer": 9701156,
        "hafas_nr": null
      },
      "geometry": {
        "type": "Point",
        "coordinates": [
          13.412847,
          52.521161
        ]
      }
    },
    {
      "type": "Feature",
      "properties": {
        "typ": "Zugang",
        "nr": 141,
        "name": "Zugang (Empfangshalle) Dircksen-/Rathausstraße",
        "d": 0,
        "x": 4595942,
        "y": 5821845,
        "untergeordnete_exportnummer": 9701141,
        "hafas_nr": null
      },
      "geometry": {
        "type": "Point",
        "coordinates": [
          13.411982,
          52.521297
        ]
      }
    },
    {
      "type": "Feature",
      "properties": {
        "typ": "Zwischenpunkt",
        "nr": 64,
        "name": "Zwischengeschoss U5/U2 (Treppe 1 zum Bahnsteig U2)",
        "d": -3,
        "x": 4596000,
        "y": 5821830,
        "untergeordnete_exportnummer": 9701064,
        "hafas_nr": null
      },
      "geometry": {
        "type": "Point",
        "coordinates": [
          13.412832,
          52.521152
        ]
      }
    },
    {
      "type": "Feature",
      "properties": {
        "typ": "Zwischenpunkt",
        "nr": 95,
        "name": "Bahnsteig U8 (Treppe 1 zum Verteiler)",
        "d": -3,
        "x": 4595980,
        "y": 5821813,
        "untergeordnete_exportnummer": 9701095,
        "hafas_nr": null
      },
      "geometry": {
        "type": "Point",
        "coordinates": [
          13.412532,
          52.521003
        ]
      }
    },
    {
      "type": "Feature",
      "properties": {
        "typ": "Zwischenpunkt",
        "nr": 103,
        "name": "Zwischengeschoss U5/U8 (Treppe zum Bahnsteig U5 Hönow)",
        "d": -4,
        "x": 4596000,
        "y": 5821831,
        "untergeordnete_exportnummer": 9701103,
        "hafas_nr": null
      },
      "geometry": {
        "type": "Point",
        "coordinates": [
          13.412832,
          52.521161
        ]
      }
    },
    {
      "type": "Feature",
      "properties": {
        "typ": "Zwischenpunkt",
        "nr": 115,
        "name": "Bahnsteig U5 Hönow (Rolltreppe zum Verteiler)",
        "d": -5,
        "x": 4596086,
        "y": 5821891,
        "untergeordnete_exportnummer": 9701115,
        "hafas_nr": null
      },
      "geometry": {
        "type": "Point",
        "coordinates": [
          13.414116,
          52.521685
        ]
      }
    },
    {
      "type": "Feature",
      "properties": {
        "typ": "Zwischenpunkt",
        "nr": 120,
        "name": "Bahnsteig U5 Hönow (Treppe zum Zwischengeschoss Unterführung)",
        "d": -5,
        "x": 4596086,
        "y": 5821891,
        "untergeordnete_exportnummer": 9701120,
        "hafas_nr": null
      },
      "geometry": {
        "type": "Point",
        "coordinates": [
          13.414116,
          52.521685
        ]
      }
    },
    {
      "type": "Feature",
      "properties": {
        "typ": "Zwischenpunkt",
        "nr": 122,
        "name": "Ladenstr. (Treppe zum Verteiler)",
        "d": -2,
        "x": 4596026,
        "y": 5821849,
        "untergeordnete_exportnummer": 9701122,
        "hafas_nr": null
      },
      "geometry": {
        "type": "Point",
        "coordinates": [
          13.41322,
          52.521318
        ]
      }
    },
    {
      "type": "Feature",
      "properties": {
        "typ": "Zwischenpunkt",
        "nr": 42,
        "name": "Empfangshalle (Rolltreppe zum Bahnsteig -Anfang)",
        "d": 0,
        "x": 4595897,
        "y": 5821845,
        "untergeordnete_exportnummer": 9701042,
        "hafas_nr": null
      },
      "geometry": {
        "type": "Point",
        "coordinates": [
          13.411319,
          52.521305
        ]
      }
    },
    {
      "type": "Feature",
      "properties": {
        "typ": "Zugang",
        "nr": 8,
        "name": "Zugang (Treppe) Alexanderplatz/Alexanderstraße",
        "d": 0,
        "x": 4596149,
        "y": 5821944,
        "untergeordnete_exportnummer": 9701008,
        "hafas_nr": null
      },
      "geometry": {
        "type": "Point",
        "coordinates": [
          13.415059,
          52.52215
        ]
      }
    },
    {
      "type": "Feature",
      "properties": {
        "typ": "Zwischenpunkt",
        "nr": 54,
        "name": "Empfangshalle (Rolltreppe Nähe Dircksenstraße zum UG Empfangshalle )",
        "d": 0,
        "x": 4595929,
        "y": 5821840,
        "untergeordnete_exportnummer": 9701054,
        "hafas_nr": null
      },
      "geometry": {
        "type": "Point",
        "coordinates": [
          13.411789,
          52.521254
        ]
      }
    },
    {
      "type": "Feature",
      "properties": {
        "typ": "Zwischenpunkt",
        "nr": 49,
        "name": "Empfangshalle (Treppe zum Bahnsteig -Mitte S5/7/75/3)",
        "d": 0,
        "x": 4595887,
        "y": 5821884,
        "untergeordnete_exportnummer": 9701049,
        "hafas_nr": null
      },
      "geometry": {
        "type": "Point",
        "coordinates": [
          13.411183,
          52.521657
        ]
      }
    },
    {
      "type": "Feature",
      "properties": {
        "typ": "Zwischenpunkt",
        "nr": 34,
        "name": "Bahnsteig S5/7/75/3 (Treppe Bahnsteig -Anfang zur Empfangshalle)",
        "d": 1,
        "x": 4595877,
        "y": 5821876,
        "untergeordnete_exportnummer": 9701034,
        "hafas_nr": null
      },
      "geometry": {
        "type": "Point",
        "coordinates": [
          13.411033,
          52.521587
        ]
      }
    },
    {
      "type": "Feature",
      "properties": {
        "typ": "Zwischenpunkt",
        "nr": 130,
        "name": "Verteiler (Treppe 1 zum Zwischengeschoss U5/Verteiler)",
        "d": -1,
        "x": 4595981,
        "y": 5821779,
        "untergeordnete_exportnummer": 9701130,
        "hafas_nr": null
      },
      "geometry": {
        "type": "Point",
        "coordinates": [
          13.412537,
          52.520697
        ]
      }
    },
    {
      "type": "Feature",
      "properties": {
        "typ": "Zwischenpunkt",
        "nr": 71,
        "name": "Zwischengeschoss U5/U2 (Treppe 2 zum Bahnsteig U5 S+U Alexanderplatz Bhf.)",
        "d": -3,
        "x": 4596000,
        "y": 5821830,
        "untergeordnete_exportnummer": 9701071,
        "hafas_nr": null
      },
      "geometry": {
        "type": "Point",
        "coordinates": [
          13.412832,
          52.521152
        ]
      }
    },
    {
      "type": "Feature",
      "properties": {
        "typ": "Zwischenpunkt",
        "nr": 77,
        "name": "Zwischengeschoss Unterführung (Treppe zum Bahnsteig U5 S+U Alexanderplatz Bhf.)",
        "d": -1,
        "x": 4596257,
        "y": 5821955,
        "untergeordnete_exportnummer": 9701077,
        "hafas_nr": null
      },
      "geometry": {
        "type": "Point",
        "coordinates": [
          13.416653,
          52.52223
        ]
      }
    },
    {
      "type": "Feature",
      "properties": {
        "typ": "Zwischenpunkt",
        "nr": 96,
        "name": "Bahnsteig U8 (Aufzug zum Bahnsteig U5 Alexanderplatz,Verteiler und Zugang)",
        "d": -3,
        "x": 4595979,
        "y": 5821813,
        "untergeordnete_exportnummer": 9701096,
        "hafas_nr": null
      },
      "geometry": {
        "type": "Point",
        "coordinates": [
          13.412517,
          52.521003
        ]
      }
    },
    {
      "type": "Feature",
      "properties": {
        "typ": "Zwischenpunkt",
        "nr": 117,
        "name": "Bahnsteig U5 Hönow (Treppe 2 zum Zwischengeschoss U5/U2)",
        "d": -5,
        "x": 4596087,
        "y": 5821891,
        "untergeordnete_exportnummer": 9701117,
        "hafas_nr": null
      },
      "geometry": {
        "type": "Point",
        "coordinates": [
          13.414131,
          52.521685
        ]
      }
    },
    {
      "type": "Feature",
      "properties": {
        "typ": "Zwischenpunkt",
        "nr": 134,
        "name": "Verteiler (Treppe zur Ladenstraße)",
        "d": -1,
        "x": 4595981,
        "y": 5821779,
        "untergeordnete_exportnummer": 9701134,
        "hafas_nr": null
      },
      "geometry": {
        "type": "Point",
        "coordinates": [
          13.412537,
          52.520697
        ]
      }
    },
    {
      "type": "Feature",
      "properties": {
        "typ": "Zwischenpunkt",
        "nr": 137,
        "name": "Zwischengeschoss U5/Verteiler (Treppe zum Bahnsteig U5 Hönow)",
        "d": -3,
        "x": 4596000,
        "y": 5821830,
        "untergeordnete_exportnummer": 9701137,
        "hafas_nr": null
      },
      "geometry": {
        "type": "Point",
        "coordinates": [
          13.412832,
          52.521152
        ]
      }
    },
    {
      "type": "Feature",
      "properties": {
        "typ": "Zwischenpunkt",
        "nr": 135,
        "name": "Verteiler (Treppe Gruner-/Dircksen-/Alexanderstraße)",
        "d": -1,
        "x": 4595982,
        "y": 5821777,
        "untergeordnete_exportnummer": 9701135,
        "hafas_nr": null
      },
      "geometry": {
        "type": "Point",
        "coordinates": [
          13.412551,
          52.520679
        ]
      }
    },
    {
      "type": "Feature",
      "properties": {
        "typ": "Zwischenpunkt",
        "nr": 31,
        "name": "Bahnsteig (Rolltreppe Bahnsteig -Mitte zur Empfangshalle)",
        "d": 1,
        "x": 4595884,
        "y": 5821884,
        "untergeordnete_exportnummer": 9701031,
        "hafas_nr": null
      },
      "geometry": {
        "type": "Point",
        "coordinates": [
          13.411139,
          52.521658
        ]
      }
    },
    {
      "type": "Feature",
      "properties": {
        "typ": "Zwischenpunkt",
        "nr": 45,
        "name": "Empfangshalle (Aufzug zum Bahnsteig S5/7/75/3)",
        "d": 0,
        "x": 4595954,
        "y": 5821817,
        "untergeordnete_exportnummer": 9701045,
        "hafas_nr": null
      },
      "geometry": {
        "type": "Point",
        "coordinates": [
          13.41215,
          52.521043
        ]
      }
    },
    {
      "type": "Feature",
      "properties": {
        "typ": "Zwischenpunkt",
        "nr": 32,
        "name": "Bahnsteig (Rolltreppe Bahnsteig -Ende zur Empfangshalle)",
        "d": 1,
        "x": 4595884,
        "y": 5821885,
        "untergeordnete_exportnummer": 9701032,
        "hafas_nr": null
      },
      "geometry": {
        "type": "Point",
        "coordinates": [
          13.411139,
          52.521667
        ]
      }
    },
    {
      "type": "Feature",
      "properties": {
        "typ": "Zugang",
        "nr": 22,
        "name": "Zugang (Aufzug) U5/U2",
        "d": 0,
        "x": 4596129,
        "y": 5821932,
        "untergeordnete_exportnummer": 9701022,
        "hafas_nr": null
      },
      "geometry": {
        "type": "Point",
        "coordinates": [
          13.414761,
          52.522046
        ]
      }
    },
    {
      "type": "Feature",
      "properties": {
        "typ": "Zwischenpunkt",
        "nr": 28,
        "name": "Bahnsteig Gleis 1/2 (Aufzug)",
        "d": 1,
        "x": 4595884,
        "y": 5821885,
        "untergeordnete_exportnummer": 9701028,
        "hafas_nr": null
      },
      "geometry": {
        "type": "Point",
        "coordinates": [
          13.411139,
          52.521667
        ]
      }
    },
    {
      "type": "Feature",
      "properties": {
        "typ": "Zugang",
        "nr": 13,
        "name": "Zugang (Treppe) Grunerstraße/Weltzeituhr",
        "d": 0,
        "x": 4596055,
        "y": 5821817,
        "untergeordnete_exportnummer": 9701013,
        "hafas_nr": null
      },
      "geometry": {
        "type": "Point",
        "coordinates": [
          13.413638,
          52.521026
        ]
      }
    },
    {
      "type": "Feature",
      "properties": {
        "typ": "Zwischenpunkt",
        "nr": 53,
        "name": "Empfangshalle (Rolltreppe Nähe Gontardstraße zum UG Empfangshalle )",
        "d": 0,
        "x": 4595917,
        "y": 5821828,
        "untergeordnete_exportnummer": 9701053,
        "hafas_nr": null
      },
      "geometry": {
        "type": "Point",
        "coordinates": [
          13.411609,
          52.521149
        ]
      }
    },
    {
      "type": "Feature",
      "properties": {
        "typ": "ÖV",
        "nr": 3,
        "name": "Bahnsteig Gleis 1+3 U5 Richtung S+U Alexanderplatz",
        "d": -5,
        "x": 4596082,
        "y": 5821895,
        "untergeordnete_exportnummer": 9701003,
        "hafas_nr": null
      },
      "geometry": {
        "type": "Point",
        "coordinates": [
          13.414058,
          52.521722
        ]
      }
    },
    {
      "type": "Feature",
      "properties": {
        "typ": "ÖV",
        "nr": 6,
        "name": "Bahnsteig Gleis 1/2",
        "d": 1,
        "x": 4595884,
        "y": 5821885,
        "untergeordnete_exportnummer": 9701006,
        "hafas_nr": null
      },
      "geometry": {
        "type": "Point",
        "coordinates": [
          13.411139,
          52.521667
        ]
      }
    },
    {
      "type": "Feature",
      "properties": {
        "typ": "Zwischenpunkt",
        "nr": 76,
        "name": "Zwischengeschoss Unterführung (Rolltreppe zum Zwischengeschoss U5/U2)",
        "d": -1,
        "x": 4596249,
        "y": 5821941,
        "untergeordnete_exportnummer": 9701076,
        "hafas_nr": null
      },
      "geometry": {
        "type": "Point",
        "coordinates": [
          13.416531,
          52.522105
        ]
      }
    },
    {
      "type": "Feature",
      "properties": {
        "typ": "Zwischenpunkt",
        "nr": 98,
        "name": "Bahnsteig U8 (Treppe 2 zum Zwischengeschoss U5/U8)",
        "d": -3,
        "x": 4595979,
        "y": 5821813,
        "untergeordnete_exportnummer": 9701098,
        "hafas_nr": null
      },
      "geometry": {
        "type": "Point",
        "coordinates": [
          13.412517,
          52.521003
        ]
      }
    },
    {
      "type": "Feature",
      "properties": {
        "typ": "Zugang",
        "nr": 145,
        "name": "Zugang (Treppe) Dirksen-/Gontardstraße/Fernsehturm",
        "d": 0,
        "x": 4595926,
        "y": 5821871,
        "untergeordnete_exportnummer": 9701145,
        "hafas_nr": null
      },
      "geometry": {
        "type": "Point",
        "coordinates": [
          13.411754,
          52.521533
        ]
      }
    },
    {
      "type": "Feature",
      "properties": {
        "typ": "Zugang",
        "nr": 147,
        "name": "Zugang (Treppe) Dirksenstraße/ Alexanderplatz",
        "d": 0,
        "x": 4596024,
        "y": 5821882,
        "untergeordnete_exportnummer": 9701147,
        "hafas_nr": null
      },
      "geometry": {
        "type": "Point",
        "coordinates": [
          13.4132,
          52.521615
        ]
      }
    },
    {
      "type": "Feature",
      "properties": {
        "typ": "Zwischenpunkt",
        "nr": 154,
        "name": "Bahnsteig U8 (Treppe zum Zwischengeschoss U8)",
        "d": -3,
        "x": 4596001,
        "y": 5821831,
        "untergeordnete_exportnummer": 9701154,
        "hafas_nr": null
      },
      "geometry": {
        "type": "Point",
        "coordinates": [
          13.412847,
          52.521161
        ]
      }
    },
    {
      "type": "Feature",
      "properties": {
        "typ": "Zwischenpunkt",
        "nr": 152,
        "name": "Verteiler (Treppe Rathaus-/Gonthardstraße/Berliner Rathaus)",
        "d": -1,
        "x": 4596000,
        "y": 5821830,
        "untergeordnete_exportnummer": 9701152,
        "hafas_nr": null
      },
      "geometry": {
        "type": "Point",
        "coordinates": [
          13.412832,
          52.521152
        ]
      }
    },
    {
      "type": "Feature",
      "properties": {
        "typ": "Zwischenpunkt",
        "nr": 155,
        "name": "Zwischengeschoss U8 (Treppe zum Bahnsteig U8)",
        "d": -2,
        "x": 4596001,
        "y": 5821830,
        "untergeordnete_exportnummer": 9701155,
        "hafas_nr": null
      },
      "geometry": {
        "type": "Point",
        "coordinates": [
          13.412846,
          52.521152
        ]
      }
    },
    {
      "type": "Feature",
      "properties": {
        "typ": "Zwischenpunkt",
        "nr": 69,
        "name": "Zwischengeschoss U5/U2 (Treppe 1 zum Bahnsteig U5 S+U Alexanderplatz Bhf.)",
        "d": -3,
        "x": 4596000,
        "y": 5821830,
        "untergeordnete_exportnummer": 9701069,
        "hafas_nr": null
      },
      "geometry": {
        "type": "Point",
        "coordinates": [
          13.412832,
          52.521152
        ]
      }
    },
    {
      "type": "Feature",
      "properties": {
        "typ": "Zwischenpunkt",
        "nr": 94,
        "name": "Bahnsteig U8 (Treppe 1 zum Zwischengeschoss U5/U8)",
        "d": -3,
        "x": 4595979,
        "y": 5821813,
        "untergeordnete_exportnummer": 9701094,
        "hafas_nr": null
      },
      "geometry": {
        "type": "Point",
        "coordinates": [
          13.412517,
          52.521003
        ]
      }
    },
    {
      "type": "Feature",
      "properties": {
        "typ": "Zwischenpunkt",
        "nr": 131,
        "name": "Verteiler (Treppe2 zum Zwischeneschoss U5/Verteiler)",
        "d": -1,
        "x": 4595981,
        "y": 5821779,
        "untergeordnete_exportnummer": 9701131,
        "hafas_nr": null
      },
      "geometry": {
        "type": "Point",
        "coordinates": [
          13.412537,
          52.520697
        ]
      }
    },
    {
      "type": "Feature",
      "properties": {
        "typ": "Zugang und ÖV",
        "nr": 23,
        "name": "Bushaltestelle Dircksenstraße vor Karl-Liebknecht-Straße",
        "d": 0,
        "x": 4595740,
        "y": 5822010,
        "untergeordnete_exportnummer": 9701023,
        "hafas_nr": null
      },
      "geometry": {
        "type": "Point",
        "coordinates": [
          13.409054,
          52.522815
        ]
      }
    },
    {
      "type": "Feature",
      "properties": {
        "typ": "Zwischenpunkt",
        "nr": 47,
        "name": "Empfangshalle (Rolltreppe zum Bahnsteig -Anfang S5/7/75/3)",
        "d": 0,
        "x": 4595910,
        "y": 5821857,
        "untergeordnete_exportnummer": 9701047,
        "hafas_nr": null
      },
      "geometry": {
        "type": "Point",
        "coordinates": [
          13.411514,
          52.52141
        ]
      }
    },
    {
      "type": "Feature",
      "properties": {
        "typ": "Zwischenpunkt",
        "nr": 51,
        "name": "Empfangshalle (Treppe zum Bahnsteig -Ende S5/7/75/3)",
        "d": 0,
        "x": 4595853,
        "y": 5821920,
        "untergeordnete_exportnummer": 9701051,
        "hafas_nr": null
      },
      "geometry": {
        "type": "Point",
        "coordinates": [
          13.410693,
          52.521986
        ]
      }
    },
    {
      "type": "Feature",
      "properties": {
        "typ": "Zwischenpunkt",
        "nr": 40,
        "name": "Empfangshalle (Aufzug zum Bahnsteig und UG Empfangshalle)",
        "d": 0,
        "x": 4595941,
        "y": 5821806,
        "untergeordnete_exportnummer": 9701040,
        "hafas_nr": null
      },
      "geometry": {
        "type": "Point",
        "coordinates": [
          13.411956,
          52.520947
        ]
      }
    },
    {
      "type": "Feature",
      "properties": {
        "typ": "Zwischenpunkt",
        "nr": 52,
        "name": "Empfangshalle (Treppe zum Untergeschoss Empfangshalle)",
        "d": 0,
        "x": 4595938,
        "y": 5821819,
        "untergeordnete_exportnummer": 9701052,
        "hafas_nr": null
      },
      "geometry": {
        "type": "Point",
        "coordinates": [
          13.411915,
          52.521064
        ]
      }
    },
    {
      "type": "Feature",
      "properties": {
        "typ": "Zugang und ÖV",
        "nr": 24,
        "name": "Bushaltestelle Karl-Liebknecht-Str. hinter Rosa-Luxemburg-Straße",
        "d": 0,
        "x": 4595675,
        "y": 5821899,
        "untergeordnete_exportnummer": 9701024,
        "hafas_nr": null
      },
      "geometry": {
        "type": "Point",
        "coordinates": [
          13.408065,
          52.521829
        ]
      }
    },
    {
      "type": "Feature",
      "properties": {
        "typ": "Zwischenpunkt",
        "nr": 35,
        "name": "Bahnsteig S5/7/75/3 (Rolltreppe Bahnsteig -Anfang zur Empfangshalle)",
        "d": 1,
        "x": 4595876,
        "y": 5821876,
        "untergeordnete_exportnummer": 9701035,
        "hafas_nr": null
      },
      "geometry": {
        "type": "Point",
        "coordinates": [
          13.411019,
          52.521587
        ]
      }
    },
    {
      "type": "Feature",
      "properties": {
        "typ": "Zwischenpunkt",
        "nr": 67,
        "name": "Zwischengeschoss U5/U2 (Aufzug zum Bahnsteig U2,Bahnsteig U5 Hönow und Zugang)",
        "d": -3,
        "x": 4596000,
        "y": 5821830,
        "untergeordnete_exportnummer": 9701067,
        "hafas_nr": null
      },
      "geometry": {
        "type": "Point",
        "coordinates": [
          13.412832,
          52.521152
        ]
      }
    },
    {
      "type": "Feature",
      "properties": {
        "typ": "Zwischenpunkt",
        "nr": 48,
        "name": "Empfangshalle (Rolltreppe zur Bahnsteigmitte S5/S7/S75/S3)",
        "d": 0,
        "x": 4595891,
        "y": 5821884,
        "untergeordnete_exportnummer": 9701048,
        "hafas_nr": null
      },
      "geometry": {
        "type": "Point",
        "coordinates": [
          13.411242,
          52.521656
        ]
      }
    },
    {
      "type": "Feature",
      "properties": {
        "typ": "Zwischenpunkt",
        "nr": 158,
        "name": "Bahnsteig U2 (Treppe Alexander-/Memhard-/Karl-Liebknecht-Straße/Galeria Kaufhof)",
        "d": -1,
        "x": 4596001,
        "y": 5821831,
        "untergeordnete_exportnummer": 9701158,
        "hafas_nr": null
      },
      "geometry": {
        "type": "Point",
        "coordinates": [
          13.412847,
          52.521161
        ]
      }
    },
    {
      "type": "Feature",
      "properties": {
        "typ": "Zwischenpunkt",
        "nr": 157,
        "name": "Zwischengeschoss U8 (Treppe Dirksen-/Gontardstraße/Fernsehturm)",
        "d": -2,
        "x": 4596001,
        "y": 5821831,
        "untergeordnete_exportnummer": 9701157,
        "hafas_nr": null
      },
      "geometry": {
        "type": "Point",
        "coordinates": [
          13.412847,
          52.521161
        ]
      }
    },
    {
      "type": "Feature",
      "properties": {
        "typ": "Bauwerk",
        "nr": 5,
        "name": "S+U Friedrichstraße Bhf.",
        "d": null,
        "x": 4594350,
        "y": 5821680,
        "untergeordnete_exportnummer": 100001,
        "hafas_nr": 9100001
      },
      "geometry": {
        "type": "Point",
        "coordinates": [
          13.388488,
          52.520092
        ]
      }
    },
    {
      "type": "Feature",
      "properties": {
        "typ": "ÖV",
        "nr": 4,
        "name": "Bahnsteig Gleis 3/4",
        "d": 3,
        "x": 4594275,
        "y": 5821686,
        "untergeordnete_exportnummer": 9702004,
        "hafas_nr": null
      },
      "geometry": {
        "type": "Point",
        "coordinates": [
          13.387385,
          52.520159
        ]
      }
    },
    {
      "type": "Feature",
      "properties": {
        "typ": "Zwischenpunkt",
        "nr": 42,
        "name": "Zwischengeschoss Georgenstraße (Treppe2 zum Bahnsteig U6)",
        "d": -2,
        "x": 4594350,
        "y": 5821680,
        "untergeordnete_exportnummer": 9702042,
        "hafas_nr": null
      },
      "geometry": {
        "type": "Point",
        "coordinates": [
          13.388488,
          52.520092
        ]
      }
    },
    {
      "type": "Feature",
      "properties": {
        "typ": "Zwischenpunkt",
        "nr": 43,
        "name": "Zwischengeschoss Georgenstraße (Treppe Friedrichstraße/Georgenstraße/S-Bahn)",
        "d": -2,
        "x": 4594350,
        "y": 5821680,
        "untergeordnete_exportnummer": 9702043,
        "hafas_nr": null
      },
      "geometry": {
        "type": "Point",
        "coordinates": [
          13.388488,
          52.520092
        ]
      }
    },
    {
      "type": "Feature",
      "properties": {
        "typ": "Zwischenpunkt",
        "nr": 59,
        "name": "Treppenabsatz Georgenstraße (Treppe zum Bahnsteig S1/2/25)",
        "d": -1,
        "x": 4594350,
        "y": 5821680,
        "untergeordnete_exportnummer": 9702059,
        "hafas_nr": null
      },
      "geometry": {
        "type": "Point",
        "coordinates": [
          13.388488,
          52.520092
        ]
      }
    },
    {
      "type": "Feature",
      "properties": {
        "typ": "Zugang",
        "nr": 17,
        "name": "Zugang (Treppe U6) Georgenstraße",
        "d": 0,
        "x": 4594275,
        "y": 5821649,
        "untergeordnete_exportnummer": 9702017,
        "hafas_nr": null
      },
      "geometry": {
        "type": "Point",
        "coordinates": [
          13.387375,
          52.519827
        ]
      }
    },
    {
      "type": "Feature",
      "properties": {
        "typ": "Zugang",
        "nr": 8,
        "name": "Zugang (Treppe) Reichstagufer",
        "d": 0,
        "x": 4594201,
        "y": 5821717,
        "untergeordnete_exportnummer": 9702008,
        "hafas_nr": null
      },
      "geometry": {
        "type": "Point",
        "coordinates": [
          13.386304,
          52.52045
        ]
      }
    },
    {
      "type": "Feature",
      "properties": {
        "typ": "Zwischenpunkt",
        "nr": 64,
        "name": "Ladenstraße/Verteiler S1/2/25 (Treppe zum Bahnsteig S1/2/25)",
        "d": 1,
        "x": 4594349,
        "y": 5821679,
        "untergeordnete_exportnummer": 9702064,
        "hafas_nr": null
      },
      "geometry": {
        "type": "Point",
        "coordinates": [
          13.388473,
          52.520083
        ]
      }
    },
    {
      "type": "Feature",
      "properties": {
        "typ": "Zwischenpunkt",
        "nr": 83,
        "name": "Zwischenebene (Aufzug zur Ladenstraße und zum Bahnsteig S5/7/75/3)",
        "d": 2,
        "x": 4594350,
        "y": 5821679,
        "untergeordnete_exportnummer": 9702083,
        "hafas_nr": null
      },
      "geometry": {
        "type": "Point",
        "coordinates": [
          13.388488,
          52.520083
        ]
      }
    },
    {
      "type": "Feature",
      "properties": {
        "typ": "Zwischenpunkt",
        "nr": 71,
        "name": "Ladenstr.aße(Treppe zum Zwischengeschoss Ladenstraße)",
        "d": 0,
        "x": 4594349,
        "y": 5821679,
        "untergeordnete_exportnummer": 9702071,
        "hafas_nr": null
      },
      "geometry": {
        "type": "Point",
        "coordinates": [
          13.388473,
          52.520083
        ]
      }
    },
    {
      "type": "Feature",
      "properties": {
        "typ": "Zwischenpunkt",
        "nr": 73,
        "name": "Ladenstraße (Rolltreppe zum Bahnsteig Gleis 3,4)",
        "d": 0,
        "x": 4594349,
        "y": 5821679,
        "untergeordnete_exportnummer": 9702073,
        "hafas_nr": null
      },
      "geometry": {
        "type": "Point",
        "coordinates": [
          13.388473,
          52.520083
        ]
      }
    },
    {
      "type": "Feature",
      "properties": {
        "typ": "Zwischenpunkt",
        "nr": 79,
        "name": "Zwischenebene (Treppe1  zum Bahnsteig S5/7/75/3)",
        "d": 2,
        "x": 4594350,
        "y": 5821680,
        "untergeordnete_exportnummer": 9702079,
        "hafas_nr": null
      },
      "geometry": {
        "type": "Point",
        "coordinates": [
          13.388488,
          52.520092
        ]
      }
    },
    {
      "type": "Feature",
      "properties": {
        "typ": "Zwischenpunkt",
        "nr": 87,
        "name": "Bahnsteig S5/7/75/3 (Rolltreppe zur Ladenstraße/Verteiler S1/2/25)",
        "d": 3,
        "x": 4594349,
        "y": 5821679,
        "untergeordnete_exportnummer": 9702087,
        "hafas_nr": null
      },
      "geometry": {
        "type": "Point",
        "coordinates": [
          13.388473,
          52.520083
        ]
      }
    },
    {
      "type": "Feature",
      "properties": {
        "typ": "Zwischenpunkt",
        "nr": 92,
        "name": "Brücke (Treppe zum Bahnsteig S5/7/75/3)",
        "d": 2,
        "x": 4594350,
        "y": 5821680,
        "untergeordnete_exportnummer": 9702092,
        "hafas_nr": null
      },
      "geometry": {
        "type": "Point",
        "coordinates": [
          13.388488,
          52.520092
        ]
      }
    },
    {
      "type": "Feature",
      "properties": {
        "typ": "Zwischenpunkt",
        "nr": 88,
        "name": "Bahnsteig S5/7/75/3 (Treppe2 zur Zwischenebene)",
        "d": 3,
        "x": 4594349,
        "y": 5821680,
        "untergeordnete_exportnummer": 9702088,
        "hafas_nr": null
      },
      "geometry": {
        "type": "Point",
        "coordinates": [
          13.388473,
          52.520092
        ]
      }
    },
    {
      "type": "Feature",
      "properties": {
        "typ": "Zwischenpunkt",
        "nr": 97,
        "name": "Bahnsteig Gleis 3/4 (Treppe zur Ladenstraße)",
        "d": 3,
        "x": 4594350,
        "y": 5821680,
        "untergeordnete_exportnummer": 9702097,
        "hafas_nr": null
      },
      "geometry": {
        "type": "Point",
        "coordinates": [
          13.388488,
          52.520092
        ]
      }
    },
    {
      "type": "Feature",
      "properties": {
        "typ": "Zwischenpunkt",
        "nr": 100,
        "name": "Bahnsteig Gleis 1/2  (Aufzug zur Ladenstraße)",
        "d": 3,
        "x": 4594350,
        "y": 5821680,
        "untergeordnete_exportnummer": 9702100,
        "hafas_nr": null
      },
      "geometry": {
        "type": "Point",
        "coordinates": [
          13.388488,
          52.520092
        ]
      }
    },
    {
      "type": "Feature",
      "properties": {
        "typ": "Zwischenpunkt",
        "nr": 102,
        "name": "Bahnsteig Gleis 1/2  (Rolltreppe zum Zwischengeschoss Ladenstraße)",
        "d": 3,
        "x": 4594350,
        "y": 5821680,
        "untergeordnete_exportnummer": 9702102,
        "hafas_nr": null
      },
      "geometry": {
        "type": "Point",
        "coordinates": [
          13.388488,
          52.520092
        ]
      }
    },
    {
      "type": "Feature",
      "properties": {
        "typ": "Zwischenpunkt",
        "nr": 32,
        "name": "Bahnsteig U6 (Treppe2 zum Zwischengeschoss Georgenstraße)",
        "d": -3,
        "x": 4594349,
        "y": 5821679,
        "untergeordnete_exportnummer": 9702032,
        "hafas_nr": null
      },
      "geometry": {
        "type": "Point",
        "coordinates": [
          13.388473,
          52.520083
        ]
      }
    },
    {
      "type": "Feature",
      "properties": {
        "typ": "Zugang",
        "nr": 7,
        "name": "Zugang (Treppe) Schiffbauerdamm",
        "d": 0,
        "x": 4594107,
        "y": 5821756,
        "untergeordnete_exportnummer": 9702007,
        "hafas_nr": null
      },
      "geometry": {
        "type": "Point",
        "coordinates": [
          13.384931,
          52.520817
        ]
      }
    },
    {
      "type": "Feature",
      "properties": {
        "typ": "Zwischenpunkt",
        "nr": 52,
        "name": "Bahnsteig S1/2/25 (Rolltreppe zum Zwischengeschoss Spreeufer)",
        "d": -3,
        "x": 4594349,
        "y": 5821679,
        "untergeordnete_exportnummer": 9702052,
        "hafas_nr": null
      },
      "geometry": {
        "type": "Point",
        "coordinates": [
          13.388473,
          52.520083
        ]
      }
    },
    {
      "type": "Feature",
      "properties": {
        "typ": "Zwischenpunkt",
        "nr": 103,
        "name": "Zwischengeschoss Ladenstraße (Treppe zur Zwischenebene)",
        "d": 1,
        "x": 4594350,
        "y": 5821680,
        "untergeordnete_exportnummer": 9702103,
        "hafas_nr": null
      },
      "geometry": {
        "type": "Point",
        "coordinates": [
          13.388488,
          52.520092
        ]
      }
    },
    {
      "type": "Feature",
      "properties": {
        "typ": "Zwischenpunkt",
        "nr": 28,
        "name": "Bahnsteig U6 (Rolltreppe zum Zwischengeschoss Spreeufer)",
        "d": -3,
        "x": 4594349,
        "y": 5821680,
        "untergeordnete_exportnummer": 9702028,
        "hafas_nr": null
      },
      "geometry": {
        "type": "Point",
        "coordinates": [
          13.388473,
          52.520092
        ]
      }
    },
    {
      "type": "Feature",
      "properties": {
        "typ": "Zwischenpunkt",
        "nr": 56,
        "name": "Bahnsteig S1/2/25 (Aufzug zur Ladenstraße)",
        "d": -3,
        "x": 4594350,
        "y": 5821680,
        "untergeordnete_exportnummer": 9702056,
        "hafas_nr": null
      },
      "geometry": {
        "type": "Point",
        "coordinates": [
          13.388488,
          52.520092
        ]
      }
    },
    {
      "type": "Feature",
      "properties": {
        "typ": "Zugang",
        "nr": 9,
        "name": "Zugang (Ladenstraße) Tränenpalast",
        "d": 0,
        "x": 4594236,
        "y": 5821735,
        "untergeordnete_exportnummer": 9702009,
        "hafas_nr": null
      },
      "geometry": {
        "type": "Point",
        "coordinates": [
          13.386824,
          52.520606
        ]
      }
    },
    {
      "type": "Feature",
      "properties": {
        "typ": "Zwischenpunkt",
        "nr": 39,
        "name": "Zwischengeschoss Spreeufer (Rolltreppe zum Bahnsteig S1/2/25)",
        "d": -1,
        "x": 4594350,
        "y": 5821679,
        "untergeordnete_exportnummer": 9702039,
        "hafas_nr": null
      },
      "geometry": {
        "type": "Point",
        "coordinates": [
          13.388488,
          52.520083
        ]
      }
    },
    {
      "type": "Feature",
      "properties": {
        "typ": "Zugang",
        "nr": 10,
        "name": "Zugang (Ladenstraße) Tränenpalast/Taxistand",
        "d": 0,
        "x": 4594289,
        "y": 5821720,
        "untergeordnete_exportnummer": 9702010,
        "hafas_nr": null
      },
      "geometry": {
        "type": "Point",
        "coordinates": [
          13.387601,
          52.520462
        ]
      }
    },
    {
      "type": "Feature",
      "properties": {
        "typ": "Zwischenpunkt",
        "nr": 72,
        "name": "Ladenstraße (Aufzug zum Bahnsteig S1/2/25)",
        "d": 0,
        "x": 4594350,
        "y": 5821680,
        "untergeordnete_exportnummer": 9702072,
        "hafas_nr": null
      },
      "geometry": {
        "type": "Point",
        "coordinates": [
          13.388488,
          52.520092
        ]
      }
    },
    {
      "type": "Feature",
      "properties": {
        "typ": "Zwischenpunkt",
        "nr": 76,
        "name": "Ladenstraße (Aufzug zum Bahnsteig Gleis 1/2)",
        "d": 0,
        "x": 4594349,
        "y": 5821680,
        "untergeordnete_exportnummer": 9702076,
        "hafas_nr": null
      },
      "geometry": {
        "type": "Point",
        "coordinates": [
          13.388473,
          52.520092
        ]
      }
    },
    {
      "type": "Feature",
      "properties": {
        "typ": "Zwischenpunkt",
        "nr": 105,
        "name": "Zwischengeschoss Ladenstraße (Treppe Friedrichstraße)",
        "d": 1,
        "x": 4594349,
        "y": 5821680,
        "untergeordnete_exportnummer": 9702105,
        "hafas_nr": null
      },
      "geometry": {
        "type": "Point",
        "coordinates": [
          13.388473,
          52.520092
        ]
      }
    },
    {
      "type": "Feature",
      "properties": {
        "typ": "Zwischenpunkt",
        "nr": 70,
        "name": "Durchgang (Treppe zum Bahnsteig S5/7/75/3)",
        "d": 0,
        "x": 4594349,
        "y": 5821679,
        "untergeordnete_exportnummer": 9702070,
        "hafas_nr": null
      },
      "geometry": {
        "type": "Point",
        "coordinates": [
          13.388473,
          52.520083
        ]
      }
    },
    {
      "type": "Feature",
      "properties": {
        "typ": "Zugang",
        "nr": 22,
        "name": "Zugang (Ladenstr.) Georgenstraße/Bundespolizei",
        "d": 0,
        "x": 4594214,
        "y": 5821680,
        "untergeordnete_exportnummer": 9702022,
        "hafas_nr": null
      },
      "geometry": {
        "type": "Point",
        "coordinates": [
          13.386485,
          52.520116
        ]
      }
    },
    {
      "type": "Feature",
      "properties": {
        "typ": "Zwischenpunkt",
        "nr": 44,
        "name": "Zwischengeschoss Georgenstraße (Aufzug Zwischengeschoss Ladenstraße/Zugang)",
        "d": -2,
        "x": 4594350,
        "y": 5821679,
        "untergeordnete_exportnummer": 9702044,
        "hafas_nr": null
      },
      "geometry": {
        "type": "Point",
        "coordinates": [
          13.388488,
          52.520083
        ]
      }
    },
    {
      "type": "Feature",
      "properties": {
        "typ": "Zwischenpunkt",
        "nr": 41,
        "name": "Zwischengeschoss Georgenstraße (Aufzug zum Bahnsteig U6)",
        "d": -2,
        "x": 4594350,
        "y": 5821680,
        "untergeordnete_exportnummer": 9702041,
        "hafas_nr": null
      },
      "geometry": {
        "type": "Point",
        "coordinates": [
          13.388488,
          52.520092
        ]
      }
    },
    {
      "type": "Feature",
      "properties": {
        "typ": "Zwischenpunkt",
        "nr": 37,
        "name": "Zwischengeschoss Spreeufer (Treppe Reichstagufer/S1/2/25)",
        "d": -1,
        "x": 4594350,
        "y": 5821680,
        "untergeordnete_exportnummer": 9702037,
        "hafas_nr": null
      },
      "geometry": {
        "type": "Point",
        "coordinates": [
          13.388488,
          52.520092
        ]
      }
    },
    {
      "type": "Feature",
      "properties": {
        "typ": "Zwischenpunkt",
        "nr": 82,
        "name": "Zwischenebene (Rolltreppe zum Bahnsteig S5/7/75/3)",
        "d": 2,
        "x": 4594350,
        "y": 5821680,
        "untergeordnete_exportnummer": 9702082,
        "hafas_nr": null
      },
      "geometry": {
        "type": "Point",
        "coordinates": [
          13.388488,
          52.520092
        ]
      }
    },
    {
      "type": "Feature",
      "properties": {
        "typ": "Zwischenpunkt",
        "nr": 33,
        "name": "Zwischengeschoss Spreeufer (Treppe zum Bahnsteig U6)",
        "d": -1,
        "x": 4594350,
        "y": 5821679,
        "untergeordnete_exportnummer": 9702033,
        "hafas_nr": null
      },
      "geometry": {
        "type": "Point",
        "coordinates": [
          13.388488,
          52.520083
        ]
      }
    },
    {
      "type": "Feature",
      "properties": {
        "typ": "Zugang",
        "nr": 13,
        "name": "Zugang (Durchgang) Friedrich-/Georgenstraße",
        "d": 0,
        "x": 4594357,
        "y": 5821660,
        "untergeordnete_exportnummer": 9702013,
        "hafas_nr": null
      },
      "geometry": {
        "type": "Point",
        "coordinates": [
          13.388585,
          52.519911
        ]
      }
    },
    {
      "type": "Feature",
      "properties": {
        "typ": "Zugang und ÖV",
        "nr": 25,
        "name": "Tramsteig Friedrichstraße vor Dorotheenstraße",
        "d": 0,
        "x": 4594341,
        "y": 5821603,
        "untergeordnete_exportnummer": 9702025,
        "hafas_nr": null
      },
      "geometry": {
        "type": "Point",
        "coordinates": [
          13.388334,
          52.519402
        ]
      }
    },
    {
      "type": "Feature",
      "properties": {
        "typ": "Zwischenpunkt",
        "nr": 53,
        "name": "Bahnsteig S1/2/25 (Rolltreppe1 zur Ladenstraße/Verteiler S1/2/25)",
        "d": -3,
        "x": 4594349,
        "y": 5821679,
        "untergeordnete_exportnummer": 9702053,
        "hafas_nr": null
      },
      "geometry": {
        "type": "Point",
        "coordinates": [
          13.388473,
          52.520083
        ]
      }
    },
    {
      "type": "Feature",
      "properties": {
        "typ": "Zwischenpunkt",
        "nr": 63,
        "name": "Ladenstraße/Verteiler S1/2/25 (Rolltreppe2 zum Bahnsteig S1/2/25)",
        "d": 1,
        "x": 4594349,
        "y": 5821679,
        "untergeordnete_exportnummer": 9702063,
        "hafas_nr": null
      },
      "geometry": {
        "type": "Point",
        "coordinates": [
          13.388473,
          52.520083
        ]
      }
    },
    {
      "type": "Feature",
      "properties": {
        "typ": "Zwischenpunkt",
        "nr": 91,
        "name": "Bahnsteig S5/7/75/3 (Treppe zum Durchgang)",
        "d": 3,
        "x": 4594349,
        "y": 5821679,
        "untergeordnete_exportnummer": 9702091,
        "hafas_nr": null
      },
      "geometry": {
        "type": "Point",
        "coordinates": [
          13.388473,
          52.520083
        ]
      }
    },
    {
      "type": "Feature",
      "properties": {
        "typ": "Zwischenpunkt",
        "nr": 94,
        "name": "Brücke (Treppe Schiffbauerdamm)",
        "d": 2,
        "x": 4594350,
        "y": 5821680,
        "untergeordnete_exportnummer": 9702094,
        "hafas_nr": null
      },
      "geometry": {
        "type": "Point",
        "coordinates": [
          13.388488,
          52.520092
        ]
      }
    },
    {
      "type": "Feature",
      "properties": {
        "typ": "Zwischenpunkt",
        "nr": 98,
        "name": "Bahnsteig Gleis 3/4 (Rolltreppe zum Zwischengeschoss Ladenstraße)",
        "d": 3,
        "x": 4594350,
        "y": 5821680,
        "untergeordnete_exportnummer": 9702098,
        "hafas_nr": null
      },
      "geometry": {
        "type": "Point",
        "coordinates": [
          13.388488,
          52.520092
        ]
      }
    },
    {
      "type": "Feature",
      "properties": {
        "typ": "Zwischenpunkt",
        "nr": 104,
        "name": "Zwischengeschoss Ladenstraße (Treppe zur Ladenstraße)",
        "d": 1,
        "x": 4594350,
        "y": 5821680,
        "untergeordnete_exportnummer": 9702104,
        "hafas_nr": null
      },
      "geometry": {
        "type": "Point",
        "coordinates": [
          13.388488,
          52.520092
        ]
      }
    },
    {
      "type": "Feature",
      "properties": {
        "typ": "Zwischenpunkt",
        "nr": 107,
        "name": "Zwischengeschoss Ladenstraße (Rolltreppe zum Bahnsteig Gleis 1/2)",
        "d": 1,
        "x": 4594350,
        "y": 5821679,
        "untergeordnete_exportnummer": 9702107,
        "hafas_nr": null
      },
      "geometry": {
        "type": "Point",
        "coordinates": [
          13.388488,
          52.520083
        ]
      }
    },
    {
      "type": "Feature",
      "properties": {
        "typ": "Zwischenpunkt",
        "nr": 50,
        "name": "Treppenabsatz Ladenstraße (Rolltreppe zur Ladenstraße)",
        "d": -1,
        "x": 4594350,
        "y": 5821680,
        "untergeordnete_exportnummer": 9702050,
        "hafas_nr": null
      },
      "geometry": {
        "type": "Point",
        "coordinates": [
          13.388488,
          52.520092
        ]
      }
    },
    {
      "type": "Feature",
      "properties": {
        "typ": "ÖV",
        "nr": 5,
        "name": "Bahnsteig Gleis 1/2",
        "d": 3,
        "x": 4594275,
        "y": 5821678,
        "untergeordnete_exportnummer": 9702005,
        "hafas_nr": null
      },
      "geometry": {
        "type": "Point",
        "coordinates": [
          13.387383,
          52.520087
        ]
      }
    },
    {
      "type": "Feature",
      "properties": {
        "typ": "Zwischenpunkt",
        "nr": 38,
        "name": "Zwischengeschoss Spreeufer (Treppe  zum Bahnsteig S1/2/25)",
        "d": -1,
        "x": 4594350,
        "y": 5821679,
        "untergeordnete_exportnummer": 9702038,
        "hafas_nr": null
      },
      "geometry": {
        "type": "Point",
        "coordinates": [
          13.388488,
          52.520083
        ]
      }
    },
    {
      "type": "Feature",
      "properties": {
        "typ": "Zugang und ÖV",
        "nr": 24,
        "name": "Bushaltestelle Friedrichstraße vor Am Weidendamm",
        "d": 0,
        "x": 4594340,
        "y": 5821714,
        "untergeordnete_exportnummer": 9702024,
        "hafas_nr": null
      },
      "geometry": {
        "type": "Point",
        "coordinates": [
          13.38835,
          52.520399
        ]
      }
    },
    {
      "type": "Feature",
      "properties": {
        "typ": "Zugang",
        "nr": 20,
        "name": "Zugang (Treppe) Friedrichstraße/Am Weidendamm",
        "d": 0,
        "x": 4594341,
        "y": 5821822,
        "untergeordnete_exportnummer": 9702020,
        "hafas_nr": null
      },
      "geometry": {
        "type": "Point",
        "coordinates": [
          13.388396,
          52.52137
        ]
      }
    },
    {
      "type": "Feature",
      "properties": {
        "typ": "Zugang",
        "nr": 19,
        "name": "Zugang (Treppe) Friedrich-/Georgen-/Dorotheenstraße",
        "d": 0,
        "x": 4594363,
        "y": 5821661,
        "untergeordnete_exportnummer": 9702019,
        "hafas_nr": null
      },
      "geometry": {
        "type": "Point",
        "coordinates": [
          13.388674,
          52.519919
        ]
      }
    },
    {
      "type": "Feature",
      "properties": {
        "typ": "Zwischenpunkt",
        "nr": 34,
        "name": "Zwischengeschoss Spreeufer (Rolltreppe zum Bahnsteig U6)",
        "d": -1,
        "x": 4594350,
        "y": 5821680,
        "untergeordnete_exportnummer": 9702034,
        "hafas_nr": null
      },
      "geometry": {
        "type": "Point",
        "coordinates": [
          13.388488,
          52.520092
        ]
      }
    },
    {
      "type": "Feature",
      "properties": {
        "typ": "Zwischenpunkt",
        "nr": 27,
        "name": "Bahnsteig U6 (Treppe zum Zwischengeschoss Spreeufer)",
        "d": -3,
        "x": 4594349,
        "y": 5821679,
        "untergeordnete_exportnummer": 9702027,
        "hafas_nr": null
      },
      "geometry": {
        "type": "Point",
        "coordinates": [
          13.388473,
          52.520083
        ]
      }
    },
    {
      "type": "Feature",
      "properties": {
        "typ": "Zwischenpunkt",
        "nr": 66,
        "name": "Ladenstraße/Verteiler S1/2/25 (Treppe zur Ladenstraße)",
        "d": 1,
        "x": 4594349,
        "y": 5821679,
        "untergeordnete_exportnummer": 9702066,
        "hafas_nr": null
      },
      "geometry": {
        "type": "Point",
        "coordinates": [
          13.388473,
          52.520083
        ]
      }
    },
    {
      "type": "Feature",
      "properties": {
        "typ": "Zwischenpunkt",
        "nr": 89,
        "name": "Bahnsteig S5/7/75/3 (Rolltreppe zur Zwischenebene)",
        "d": 3,
        "x": 4594350,
        "y": 5821680,
        "untergeordnete_exportnummer": 9702089,
        "hafas_nr": null
      },
      "geometry": {
        "type": "Point",
        "coordinates": [
          13.388488,
          52.520092
        ]
      }
    },
    {
      "type": "Feature",
      "properties": {
        "typ": "Zwischenpunkt",
        "nr": 81,
        "name": "Zwischenebene (Treppe2 zum Bahnsteig S5/7/75/3)",
        "d": 2,
        "x": 4594350,
        "y": 5821680,
        "untergeordnete_exportnummer": 9702081,
        "hafas_nr": null
      },
      "geometry": {
        "type": "Point",
        "coordinates": [
          13.388488,
          52.520092
        ]
      }
    },
    {
      "type": "Feature",
      "properties": {
        "typ": "Zwischenpunkt",
        "nr": 96,
        "name": "Bahnsteig Gleis 3/4 (Aufzug zur Ladenstraße)",
        "d": 3,
        "x": 4594350,
        "y": 5821679,
        "untergeordnete_exportnummer": 9702096,
        "hafas_nr": null
      },
      "geometry": {
        "type": "Point",
        "coordinates": [
          13.388488,
          52.520083
        ]
      }
    },
    {
      "type": "Feature",
      "properties": {
        "typ": "Zwischenpunkt",
        "nr": 95,
        "name": "Bahnsteig Gleis 3/4 (Rolltreppe zur Ladenstraße)",
        "d": 3,
        "x": 4594350,
        "y": 5821680,
        "untergeordnete_exportnummer": 9702095,
        "hafas_nr": null
      },
      "geometry": {
        "type": "Point",
        "coordinates": [
          13.388488,
          52.520092
        ]
      }
    },
    {
      "type": "Feature",
      "properties": {
        "typ": "Zwischenpunkt",
        "nr": 101,
        "name": "Bahnsteig Gleis 1/2  (Treppe zur Ladenstraße)",
        "d": 3,
        "x": 4594350,
        "y": 5821679,
        "untergeordnete_exportnummer": 9702101,
        "hafas_nr": null
      },
      "geometry": {
        "type": "Point",
        "coordinates": [
          13.388488,
          52.520083
        ]
      }
    },
    {
      "type": "Feature",
      "properties": {
        "typ": "Zwischenpunkt",
        "nr": 111,
        "name": "Zwischengeschoss Ladenstraße (Rolltreppe zum Treppenabsatz Ladenstraße)",
        "d": 1,
        "x": 4594350,
        "y": 5821680,
        "untergeordnete_exportnummer": 9702111,
        "hafas_nr": null
      },
      "geometry": {
        "type": "Point",
        "coordinates": [
          13.388488,
          52.520092
        ]
      }
    },
    {
      "type": "Feature",
      "properties": {
        "typ": "ÖV",
        "nr": 2,
        "name": "Bahnsteig S5/7/75/3 Gleis 5, 6",
        "d": 3,
        "x": 4594278,
        "y": 5821694,
        "untergeordnete_exportnummer": 9702002,
        "hafas_nr": null
      },
      "geometry": {
        "type": "Point",
        "coordinates": [
          13.387431,
          52.52023
        ]
      }
    },
    {
      "type": "Feature",
      "properties": {
        "typ": "Zwischenpunkt",
        "nr": 49,
        "name": "Treppenabsatz Ladenstraße (Treppe zur Ladenstraße)",
        "d": -1,
        "x": 4594349,
        "y": 5821680,
        "untergeordnete_exportnummer": 9702049,
        "hafas_nr": null
      },
      "geometry": {
        "type": "Point",
        "coordinates": [
          13.388473,
          52.520092
        ]
      }
    },
    {
      "type": "Feature",
      "properties": {
        "typ": "Zugang und ÖV",
        "nr": 23,
        "name": "Bushaltestelle Friedrichstraße hinter Reichstagufer",
        "d": 0,
        "x": 4594329,
        "y": 5821713,
        "untergeordnete_exportnummer": 9702023,
        "hafas_nr": null
      },
      "geometry": {
        "type": "Point",
        "coordinates": [
          13.388188,
          52.520392
        ]
      }
    },
    {
      "type": "Feature",
      "properties": {
        "typ": "Zwischenpunkt",
        "nr": 57,
        "name": "Bahnsteig S1/2/25 (Treppe zum Treppenabsatz Georgenstraße)",
        "d": -3,
        "x": 4594350,
        "y": 5821680,
        "untergeordnete_exportnummer": 9702057,
        "hafas_nr": null
      },
      "geometry": {
        "type": "Point",
        "coordinates": [
          13.388488,
          52.520092
        ]
      }
    },
    {
      "type": "Feature",
      "properties": {
        "typ": "Zwischenpunkt",
        "nr": 45,
        "name": "Zwischengeschoss Georgenstraße (Treppe zum Treppenabsatz Ladenstraße)",
        "d": -2,
        "x": 4594350,
        "y": 5821680,
        "untergeordnete_exportnummer": 9702045,
        "hafas_nr": null
      },
      "geometry": {
        "type": "Point",
        "coordinates": [
          13.388488,
          52.520092
        ]
      }
    },
    {
      "type": "Feature",
      "properties": {
        "typ": "Zwischenpunkt",
        "nr": 40,
        "name": "Zwischengeschoss Georgenstraße (Treppe1 zum Bahnsteig U6)",
        "d": -2,
        "x": 4594349,
        "y": 5821680,
        "untergeordnete_exportnummer": 9702040,
        "hafas_nr": null
      },
      "geometry": {
        "type": "Point",
        "coordinates": [
          13.388473,
          52.520092
        ]
      }
    },
    {
      "type": "Feature",
      "properties": {
        "typ": "Zwischenpunkt",
        "nr": 55,
        "name": "Bahnsteig S1/2/25 (Treppe zur Ladenstraße/Verteiler S1/2/25)",
        "d": -3,
        "x": 4594350,
        "y": 5821679,
        "untergeordnete_exportnummer": 9702055,
        "hafas_nr": null
      },
      "geometry": {
        "type": "Point",
        "coordinates": [
          13.388488,
          52.520083
        ]
      }
    },
    {
      "type": "Feature",
      "properties": {
        "typ": "Zwischenpunkt",
        "nr": 84,
        "name": "Zwischenebene (Treppe zum Zwischengeschoss Ladenstraße)",
        "d": 2,
        "x": 4594350,
        "y": 5821680,
        "untergeordnete_exportnummer": 9702084,
        "hafas_nr": null
      },
      "geometry": {
        "type": "Point",
        "coordinates": [
          13.388488,
          52.520092
        ]
      }
    },
    {
      "type": "Feature",
      "properties": {
        "typ": "Zwischenpunkt",
        "nr": 75,
        "name": "Ladenstraße (Aufzug zum Bahnsteig Gleis 3/4)",
        "d": 0,
        "x": 4594349,
        "y": 5821679,
        "untergeordnete_exportnummer": 9702075,
        "hafas_nr": null
      },
      "geometry": {
        "type": "Point",
        "coordinates": [
          13.388473,
          52.520083
        ]
      }
    },
    {
      "type": "Feature",
      "properties": {
        "typ": "Zwischenpunkt",
        "nr": 78,
        "name": "Ladenstraße (Treppe zum Bahnsteig Gleis 1/2)",
        "d": 0,
        "x": 4594350,
        "y": 5821679,
        "untergeordnete_exportnummer": 9702078,
        "hafas_nr": null
      },
      "geometry": {
        "type": "Point",
        "coordinates": [
          13.388488,
          52.520083
        ]
      }
    },
    {
      "type": "Feature",
      "properties": {
        "typ": "Zwischenpunkt",
        "nr": 99,
        "name": "Bahnsteig Gleis 1/2  (Rolltreppe zur Ladenstraße)",
        "d": 3,
        "x": 4594350,
        "y": 5821680,
        "untergeordnete_exportnummer": 9702099,
        "hafas_nr": null
      },
      "geometry": {
        "type": "Point",
        "coordinates": [
          13.388488,
          52.520092
        ]
      }
    },
    {
      "type": "Feature",
      "properties": {
        "typ": "Zugang",
        "nr": 16,
        "name": "Zugang (Treppe) Georgen-/Neustädtische Straße",
        "d": 0,
        "x": 4594145,
        "y": 5821642,
        "untergeordnete_exportnummer": 9702016,
        "hafas_nr": null
      },
      "geometry": {
        "type": "Point",
        "coordinates": [
          13.385458,
          52.519786
        ]
      }
    },
    {
      "type": "Feature",
      "properties": {
        "typ": "ÖV",
        "nr": 1,
        "name": "Bahnsteig U6",
        "d": -3,
        "x": 4594330,
        "y": 5821747,
        "untergeordnete_exportnummer": 9702001,
        "hafas_nr": null
      },
      "geometry": {
        "type": "Point",
        "coordinates": [
          13.388212,
          52.520698
        ]
      }
    },
    {
      "type": "Feature",
      "properties": {
        "typ": "Zwischenpunkt",
        "nr": 47,
        "name": "Zwischengeschoss Georgenstraße (Treppe Friedrichstraße/Georgen-/Dorotheenstraße)",
        "d": -2,
        "x": 4594350,
        "y": 5821679,
        "untergeordnete_exportnummer": 9702047,
        "hafas_nr": null
      },
      "geometry": {
        "type": "Point",
        "coordinates": [
          13.388488,
          52.520083
        ]
      }
    },
    {
      "type": "Feature",
      "properties": {
        "typ": "Zwischenpunkt",
        "nr": 48,
        "name": "Treppenabsatz Ladenstraße (Treppe zum Zwischengeschoss Georgenstraße)",
        "d": -1,
        "x": 4594350,
        "y": 5821680,
        "untergeordnete_exportnummer": 9702048,
        "hafas_nr": null
      },
      "geometry": {
        "type": "Point",
        "coordinates": [
          13.388488,
          52.520092
        ]
      }
    },
    {
      "type": "Feature",
      "properties": {
        "typ": "Zwischenpunkt",
        "nr": 31,
        "name": "Bahnsteig U6  (Aufzug zum Zwischengeschoss Georgenstraße)",
        "d": -3,
        "x": 4594350,
        "y": 5821680,
        "untergeordnete_exportnummer": 9702031,
        "hafas_nr": null
      },
      "geometry": {
        "type": "Point",
        "coordinates": [
          13.388488,
          52.520092
        ]
      }
    },
    {
      "type": "Feature",
      "properties": {
        "typ": "Zugang",
        "nr": 15,
        "name": "Zugang (Treppe) Reichstagsufer/S1/2/25",
        "d": 0,
        "x": 4594277,
        "y": 5821815,
        "untergeordnete_exportnummer": 9702015,
        "hafas_nr": null
      },
      "geometry": {
        "type": "Point",
        "coordinates": [
          13.387451,
          52.521318
        ]
      }
    },
    {
      "type": "Feature",
      "properties": {
        "typ": "Zugang",
        "nr": 21,
        "name": "Zugang (Treppe) Friedrichstraße/Reichstagufer",
        "d": 0,
        "x": 4594299,
        "y": 5821810,
        "untergeordnete_exportnummer": 9702021,
        "hafas_nr": null
      },
      "geometry": {
        "type": "Point",
        "coordinates": [
          13.387774,
          52.521269
        ]
      }
    },
    {
      "type": "Feature",
      "properties": {
        "typ": "Zugang und ÖV",
        "nr": 26,
        "name": "Tramsteig Friedrichstraße vor Georgenstraße",
        "d": 0,
        "x": 4594352,
        "y": 5821597,
        "untergeordnete_exportnummer": 9702026,
        "hafas_nr": null
      },
      "geometry": {
        "type": "Point",
        "coordinates": [
          13.388494,
          52.519346
        ]
      }
    },
    {
      "type": "Feature",
      "properties": {
        "typ": "Zugang und ÖV",
        "nr": 112,
        "name": "Bushaltestelle Reichstagufer hinter Friedrichstraße",
        "d": 0,
        "x": 4594223,
        "y": 5821781,
        "untergeordnete_exportnummer": 9702112,
        "hafas_nr": null
      },
      "geometry": {
        "type": "Point",
        "coordinates": [
          13.386646,
          52.521022
        ]
      }
    },
    {
      "type": "Feature",
      "properties": {
        "typ": "Zugang",
        "nr": 11,
        "name": "Zugang (Treppe) Friedrichstraße",
        "d": 0,
        "x": 4594328,
        "y": 5821680,
        "untergeordnete_exportnummer": 9702011,
        "hafas_nr": null
      },
      "geometry": {
        "type": "Point",
        "coordinates": [
          13.388164,
          52.520096
        ]
      }
    },
    {
      "type": "Feature",
      "properties": {
        "typ": "Zugang",
        "nr": 6,
        "name": "Zugang (Aufzug)",
        "d": 0,
        "x": 4594315,
        "y": 5821658,
        "untergeordnete_exportnummer": 9702006,
        "hafas_nr": null
      },
      "geometry": {
        "type": "Point",
        "coordinates": [
          13.387966,
          52.519901
        ]
      }
    },
    {
      "type": "Feature",
      "properties": {
        "typ": "Zwischenpunkt",
        "nr": 46,
        "name": "Zwischengeschoss Georgenstraße (Treppe Friedrichstraße/Dorotheenstraße/Tram)",
        "d": -2,
        "x": 4594350,
        "y": 5821680,
        "untergeordnete_exportnummer": 9702046,
        "hafas_nr": null
      },
      "geometry": {
        "type": "Point",
        "coordinates": [
          13.388488,
          52.520092
        ]
      }
    },
    {
      "type": "Feature",
      "properties": {
        "typ": "Zwischenpunkt",
        "nr": 54,
        "name": "Bahnsteig S1/2/25 (Rolltreppe2 zur Ladenstraße/Verteiler S1/2/25)",
        "d": -3,
        "x": 4594349,
        "y": 5821679,
        "untergeordnete_exportnummer": 9702054,
        "hafas_nr": null
      },
      "geometry": {
        "type": "Point",
        "coordinates": [
          13.388473,
          52.520083
        ]
      }
    },